community_id,poi_category,poi_rank,poi_name,poi_type,distance_m,lat,lng,address
1,subway,1,高新园(地铁站),交通设施服务;地铁站;地铁站,421,22.540236,113.953842,(在建)20号线二期;1号线/罗宝线
1,subway,2,高新中(地铁站),交通设施服务;地铁站;地铁站,1013,22.547012,113.945319,13号线/石岩线
1,subway,3,深大(地铁站),交通设施服务;地铁站;地铁站,1223,22.538667,113.944173,(在建)20号线二期;13号线/石岩线;1号线/罗宝线
1,school,1,南山外国语学校(集团)科华学校小学部,科教文化服务;学校;小学,448,22.546710,113.957796,莱英路红树别院
1,school,2,鑫辉餐饮海滨小学六(6)班,科教文化服务;科教文化场所;科教文化场所,964,22.550665,113.948676,科丰路2号特发信息港大厦F1层
1,school,3,中建科工高新小学项目施工现场,公司企业;公司;公司,1142,22.534597,113.950060,科技南路24号(高新南地铁站D口步行250米)
1,hospital,1,深圳市南山区医疗集团总部,医疗保健服务;医疗保健服务场所;医疗保健服务场所,55,22.544064,113.954085,铜鼓路28-18号(高新园地铁站A口步行480米)
1,hospital,2,深圳沙河医院,医疗保健服务;综合医院;综合医院,1529,22.541468,113.969237,沙河街32号(白石洲地铁站A口步行290米)
1,hospital,3,友鑫医院,医疗保健服务;综合医院;综合医院,1659,22.558538,113.951263,松学路2号
1,mall,1,c.city-E馆,购物服务;商场;普通商场,137,22.543776,113.953283,粤海街道铜鼓路55号大冲都市花园L1-L2层
1,mall,2,大冲都市花园商场,购物服务;商场;商场|生活服务;生活服务场所;生活服务场所,156,22.543076,113.953422,铜鼓路大冲都市花园(高新园地铁站B口步行310米)
1,mall,3,深圳万象天地,购物服务;商场;购物中心,271,22.541865,113.955960,粤海街道大冲社区深南大道9668号
1,park,1,水滴花园(深圳万象天地),风景名胜;公园广场;公园,319,22.541343,113.955896,科发路19号深圳万象天地L4层
1,park,2,大沙河生态长廊绿道,风景名胜;风景名胜相关;旅游景点,667,22.539934,113.959416,沙河西路辅路与深南沙河立交交叉口北40米
1,park,3,科苑公园,风景名胜;公园广场;公园,770,22.549101,113.949591,科苑花园58区
2,subway,1,高新南(地铁站),交通设施服务;地铁站;地铁站,654,22.532797,113.950000,9号线/梅林线
2,subway,2,科苑(地铁站),交通设施服务;地铁站;地铁站,815,22.527019,113.946195,13号线/石岩线;2号线(8号线)
2,subway,3,粤海门(地铁站),交通设施服务;地铁站;地铁站,948,22.531821,113.945645,13号线/石岩线;9号线/梅林线
2,school,1,深圳市南山外国语学校(集团)科苑小学,科教文化服务;学校;小学,736,22.523514,113.948995,高新南环路69号(科苑地铁站E1口步行370米)
2,school,2,深圳南山外国语学校(集团)高新小学,科教文化服务;学校;小学,762,22.534298,113.950568,科技南路22-1号(高新南地铁站D口步行220米)
2,school,3,中建科工高新小学项目施工现场,公司企业;公司;公司,816,22.534597,113.950060,科技南路24号(高新南地铁站D口步行250米)
2,hospital,1,纳贝医生运动康复中心(深圳湾店),医疗保健服务;医疗保健服务场所;医疗保健服务场所,1365,22.517362,113.947869,滨海大道3001号深圳湾体育中心
2,hospital,2,深圳市南山区医疗集团总部,医疗保健服务;医疗保健服务场所;医疗保健服务场所,1762,22.544064,113.954085,铜鼓路28-18号(高新园地铁站A口步行480米)
2,hospital,3,深圳沙河医院,医疗保健服务;综合医院;综合医院,2149,22.541468,113.969237,沙河街32号(白石洲地铁站A口步行290米)
2,mall,1,安邻荟商场,购物服务;超级市场;超市,637,22.533325,113.951175,高新安荟邻(高新南地铁站D口旁)
2,mall,2,高新安荟邻,购物服务;商场;商场,660,22.533505,113.951072,科技南八路与白石路交叉口西北60米
2,mall,3,荟食广场,购物服务;商场;普通商场,984,22.537029,113.952973,创维半导体设计大厦裙楼B1层106F2
2,park,1,大沙河生态长廊绿道-紫花风铃木,风景名胜;风景名胜相关;旅游景点,282,22.530049,113.955946,沙河西路辅路与高新南九道交叉口东140米
2,park,2,滨福广场街心小公园,风景名胜;公园广场;公园,541,22.525369,113.949761,科技南路7-6号滨福世纪广场
2,park,3,云之园,风景名胜;公园广场;公园,619,22.531938,113.949525,科技南路(高新南地铁站A口步行190米)
3,school,1,深圳大学附属华南学校,科教文化服务;学校;中学,879,22.681576,114.144832,平湖街道万福路33号
3,school,2,平湖中心学校,科教文化服务;学校;中学,928,22.689295,114.132430,平湖街道新南社区新南路1号
3,school,3,平湖守真小学,科教文化服务;学校;小学,1327,22.690324,114.127299,平湖街道上大街2号(平湖地铁站A口步行360米)
3,hospital,1,暨南大学附属深圳华侨医院住院部,医疗保健服务;综合医院;综合医院,1001,22.687160,114.144067,湖新路1号暨南大学附属深圳华侨医院内
3,hospital,2,深圳华侨医院,医疗保健服务;综合医院;综合医院,1007,22.687501,114.143853,平湖镇湖新街1号
3,hospital,3,深圳大学附属华南医院,医疗保健服务;综合医院;综合医院,1156,22.674359,114.144189,平湖街道福新街1号
3,mall,1,熙璟城购物中心,购物服务;商场;购物中心,9,22.681828,114.136317,富安大道100号
3,mall,2,优品谷(熙璟城购物中心店),购物服务;专卖店;烟酒专卖店,76,22.682415,114.136085,富安大道100号熙璟城购物中心F1层
3,mall,3,平湖酒店用品城C区,商务住宅;商务住宅相关;商务住宅相关,233,22.679699,114.136765,平安大道6号
3,park,1,平湖匠作主题公园,风景名胜;公园广场;公园,687,22.676195,114.139197,平安大道与民安路交叉口东40米
3,park,2,户外花园,风景名胜;公园广场;公园,774,22.682475,114.128775,富安大道18号亚钢1号
4,subway,1,老街(地铁站),交通设施服务;地铁站;地铁站,211,22.544301,114.116241,(在建)17号线/平湖线;1号线/罗宝线;3号线/龙岗线
4,subway,2,东门(地铁站),交通设施服务;地铁站;地铁站,372,22.542946,114.117079,5号线/环中线
4,subway,3,嘉宾(地铁站),交通设施服务;地铁站;地铁站,693,22.539105,114.115426,(在建)17号线/平湖线
4,school,1,深圳市桂园小学,科教文化服务;学校;小学,360,22.545475,114.110980,宝安南路2028号(大剧院地铁站D口步行430米)
4,school,2,深圳市罗湖区星园学校,科教文化服务;学校;小学,512,22.549733,114.113248,桂园路94号
4,school,3,深圳小学,科教文化服务;学校;小学,762,22.550021,114.119823,人民北路2171号(晒布地铁站D1口步行390米)
4,hospital,1,广州中医药大学第四临床医学院,科教文化服务;学校;高等院校,272,22.543789,114.112368,深圳市中医院第一门诊部西北门旁
4,hospital,2,深圳市中医院科教中心,科教文化服务;科教文化场所;科教文化场所,527,22.541251,114.117178,迎春路15号(国贸地铁站E口步行320米)
4,hospital,3,深圳远大胃肠肛肠医院,生活服务;生活服务场所;生活服务场所,690,22.539815,114.117669,南湖街道嘉北社区迎春路3号海燕大厦嘉宾路3002-2层-4层
4,mall,1,深圳文和友,购物服务;商场;商场,9,22.545339,114.114531,解放路3002号(老街地铁站G口步行310米)
4,mall,2,和平茂业商场(鸿隆世纪广场店),购物服务;商场;商场,130,22.544124,114.114236,东门街道和平路3009号茂业商场二楼
4,mall,3,茂业奥特莱斯(和平路店),购物服务;商场;购物中心,130,22.544115,114.114262,解放路人民桥(老街地铁站H口步行230米)
4,park,1,飞跃恐龙谷,风景名胜;风景名胜相关;旅游景点,414,22.545274,114.118505,602(老街地铁站出入口步行110米)
4,park,2,深南宝安路街头公园,风景名胜;公园广场;公园,416,22.542559,114.111693,宝安南路街头公园(大剧院地铁站D口步行350米)
4,park,3,和平社区公园,风景名胜;公园广场;公园,696,22.539137,114.113149,东门太平洋商贸大厦(嘉宾路北)
5,subway,1,民宝(地铁站),交通设施服务;地铁站;地铁站,547,22.620683,114.032817,(在建)27号线
5,subway,2,民治(地铁站),交通设施服务;地铁站;地铁站,599,22.617545,114.040850,(在建)22号线/中轴线;5号线/环中线
5,subway,3,民治北(地铁站),交通设施服务;地铁站;地铁站,1028,22.631399,114.037208,(在建)22号线/中轴线
5,school,1,泊寓-民治小学公社,科教文化服务;科教文化场所;科教文化场所,244,22.619982,114.037867,塘水围新村3区66B栋
5,school,2,民治小学,科教文化服务;学校;小学,257,22.620262,114.039276,民治大道395号(民治地铁站D口步行310米)
5,school,3,深圳市龙华区行知实验小学,科教文化服务;学校;小学,1144,22.614488,114.045274,民治街道民新社区民丰路30号
5,hospital,1,深圳健安医院,医疗保健服务;综合医院;综合医院,758,22.628992,114.038086,民治街道沙吓工业区169号
5,hospital,2,深圳健安医院妇科中心,医疗保健服务;综合医院;综合医院,758,22.628996,114.038074,龙华区沙吓工业区169号
5,hospital,3,阳光里社康服务中心,医疗保健服务;综合医院;卫生院,844,22.625052,114.030277,民治街道民兴街绿景公馆一八六六花园南区商铺首层
5,mall,1,华洋商城,购物服务;商场;普通商场,120,22.621306,114.037206,民旺路79号
5,mall,2,恒科商业广场,购物服务;商场;普通商场,194,22.621218,114.039461,民治大道435号(民治地铁站D口步行390米)
5,mall,3,嘉熙业广场,购物服务;商场;购物中心,226,22.623123,114.039840,民治大道328号
5,park,1,民治社区公园-凉亭,风景名胜;风景名胜相关;旅游景点,390,22.619425,114.035538,民治街道民旺路88号民治社区公园(东北角)
5,park,2,民治社区公园,风景名胜;公园广场;公园,423,22.619185,114.035345,民治街道民旺路88号
5,park,3,民治电信支局闲置地改建公园,风景名胜;公园广场;公园,431,22.621334,114.033793,民治街道民强社区民旺路142号
6,subway,1,景龙(地铁站),交通设施服务;地铁站;地铁站,374,22.646432,114.027624,(在建)25号线一期
6,subway,2,油福(地铁站),交通设施服务;地铁站;地铁站,522,22.642128,114.032753,(在建)25号线一期;(在建)27号线
6,subway,3,松和(地铁站),交通设施服务;地铁站;地铁站,1035,22.640214,114.038572,(在建)22号线/中轴线
6,school,1,乐思拓教育(壹成中心校区),科教文化服务;培训机构;培训机构,82,22.646025,114.030775,鸿荣路壹城中心七区1栋B座二楼37号街铺
6,school,2,A+计划教育(壹方天地校区),科教文化服务;培训机构;培训机构,412,22.650312,114.031488,东环一路230号
6,school,3,深圳市龙华区创新实验学校小学部,科教文化服务;学校;小学,536,22.651292,114.030008,龙华街道景新社区景龙太平路10号
6,hospital,1,深圳固生堂中医龙华门诊部,医疗保健服务;医药保健销售店;医疗保健用品|医疗保健服务;诊所;诊所,557,22.651615,114.030999,龙华街道景龙社区建设东路东南侧东华明珠园商场1011楼L1-012号
6,hospital,2,深圳市龙华区人民医院创伤中心,医疗保健服务;综合医院;三级甲等医院,997,22.655325,114.033525,龙华街道景龙建设路38号人民医院新外科楼2楼
6,hospital,3,深圳市龙华区人民医院,医疗保健服务;综合医院;三级甲等医院,1003,22.655543,114.032620,龙华街道景龙社区龙华建设路38号
6,mall,1,壹方天地B区,购物服务;商场;普通商场,211,22.646507,114.029210,人民路4022号
6,mall,2,壹方天地,购物服务;商场;普通商场|购物服务;商场;购物中心,213,22.646577,114.029185,人民路4022号
6,mall,3,MONOLOGUE(深圳壹方天地店),购物服务;专卖店;珠宝首饰工艺品,275,22.644175,114.030825,人民路4022号壹方天地C区L1层
6,park,1,景龙儿童街心公园,风景名胜;公园广场;公园,491,22.650951,114.030383,龙华街道景新社区景龙太平路8号
6,park,2,觅蜜花园,风景名胜;公园广场;公园,537,22.650303,114.027884,CITY BOOK儿童书房东侧绿地
6,park,3,龙华街道禁毒主题公园,风景名胜;公园广场;公园,985,22.643968,114.040414,民清路80号
7,subway,1,鹿丹村(地铁站),交通设施服务;地铁站;地铁站,259,22.535708,114.108625,9号线/梅林线
7,subway,2,红岭南(地铁站),交通设施服务;地铁站;地铁站,510,22.538490,114.106261,11号线/机场线;9号线/梅林线
7,subway,3,大剧院(地铁站),交通设施服务;地铁站;地铁站,877,22.541800,114.107811,1号线/罗宝线;2号线(8号线);5号线/环中线
7,school,1,深圳市滨河小学,科教文化服务;学校;小学,301,22.536272,114.105444,红岭南路1002号(鹿丹村地铁站D口步行320米)
7,school,2,燕贻学校,科教文化服务;学校;小学,570,22.539075,114.107225,金塘街与金华街交叉口北60米
7,school,3,深圳市福田区上步小学,科教文化服务;学校;小学,971,22.537788,114.098467,埔尾村55号(近南园路)
7,hospital,1,幸福万象大厦社康中心,医疗保健服务;综合医院;卫生院,429,22.532922,114.110988,渔民村路38号幸福万象大厦
7,hospital,2,深圳平乐骨伤科医院正骨科,医疗保健服务;专科医院;骨科医院,554,22.537675,114.103375,东园路与巴登街交叉口东120米
7,hospital,3,深圳平乐骨伤科医院(福田院区),医疗保健服务;专科医院;骨科医院,567,22.537651,114.103157,东园路30号(红岭南地铁站C口步行340米)
7,mall,1,中深烟草贸易中心商场,购物服务;专卖店;烟酒专卖店,495,22.537075,114.103525,东园路17号滨河新村(红岭南地铁站E口步行320米)
7,mall,2,深圳万象城(罗湖店)-2期,购物服务;商场;普通商场,609,22.537994,114.110958,宝安南路1881号(鹿丹村地铁站C口步行320米)
7,mall,3,丽晶商业广场,购物服务;商场;普通商场,626,22.539567,114.107354,金塘街48号(大剧院地铁站E口步行170米)
7,park,1,滨江新村社区公园,风景名胜;公园广场;公园,638,22.536778,114.101559,东园路87-89号
7,park,2,嘉宾公园,风景名胜;公园广场;公园,728,22.538296,114.112261,宝安南路1881号万象城对面
7,park,3,119消防主题公园,风景名胜;公园广场;公园,763,22.539022,114.111965,宝安路与嘉宾路交叉口西北40米
8,subway,1,贝尔路(地铁站),交通设施服务;地铁站;地铁站,653,22.641719,114.066366,(在建)25号线一期;10号线/坂田线
8,subway,2,华为(地铁站),交通设施服务;地铁站;地铁站,672,22.650445,114.067171,10号线/坂田线
8,subway,3,黄君山(地铁站),交通设施服务;地铁站;地铁站,1268,22.641837,114.059469,(在建)25号线一期
8,school,1,龙岗区外国语学校(集团)云和学校小学部,科教文化服务;学校;小学,479,22.647075,114.066725,坂雪岗大道与隆平路交叉口东北150米
8,school,2,雪象小学,科教文化服务;学校;小学,883,22.650859,114.077580,雪岗路1041号
8,school,3,立雪小学,科教文化服务;学校;小学,1087,22.650838,114.080063,坂田街道坂澜大道52号
8,hospital,1,深圳市龙岗区第二中医院,医疗保健服务;综合医院;综合医院,390,22.646145,114.074873,坂田街道万科城社区坂澜大道20号
8,hospital,2,深圳市人民医院(坂田院区),医疗保健服务;综合医院;三级甲等医院,875,22.650424,114.077859,坂澜大道
8,hospital,3,肖传国医院,医疗保健服务;综合医院;综合医院,1230,22.656664,114.070601,坂雪岗大道4035号(岗头地铁站D口步行140米)
8,mall,1,万和商场(雪象花园新村南),购物服务;超级市场;超市,654,22.649763,114.075633,坂田街道雪象花园新村10-12号1层
8,mall,2,华茂汇,购物服务;商场;普通商场,742,22.651803,114.068409,坂田街道坂雪岗大道4026号
8,mall,3,华创里购物中心,商务住宅;住宅区;住宅小区|购物服务;商场;商场,856,22.651577,114.065845,坂田街道岗头社区稼先路1998号华创云轩商业裙楼
8,park,1,万科城南门街心公园,风景名胜;公园广场;公园广场,403,22.642018,114.070703,坂雪岗大道2-24号
8,park,2,贝尔公园,风景名胜;风景名胜相关;旅游景点,489,22.641360,114.072304,吉华路468号
8,park,3,智慧种子花园,风景名胜;公园广场;公园,587,22.641454,114.067603,坂雪岗大道与贝尔路交汇处中海日辉台小区门前
9,subway,1,海月(地铁站),交通设施服务;地铁站;地铁站,417,22.500409,113.937715,2号线(8号线)
9,subway,2,登良(地铁站),交通设施服务;地铁站;地铁站,843,22.509146,113.937602,2号线(8号线)
9,subway,3,湾厦(地铁站),交通设施服务;地铁站;地铁站,1090,22.493353,113.938604,2号线(8号线)
9,school,1,深圳大学师范学院附属后海小学,科教文化服务;学校;小学,255,22.504257,113.932979,后海大道2142号
9,school,2,艺启创想实验艺术学院(深圳湾校区),科教文化服务;培训机构;培训机构,624,22.498525,113.938725,蛇口街道曦湾·教育城2楼207商铺艺启创想
9,school,3,深圳育才二小,科教文化服务;学校;小学,690,22.497224,113.930251,荔园路94号
9,hospital,1,南山区医疗集团总部文竹园社康服务中心,医疗保健服务;综合医院;卫生院,566,22.497643,113.931853,荔园路102号
9,hospital,2,深圳市南山区兰园社康,医疗保健服务;综合医院;卫生院,796,22.499823,113.926898,蛇口金竹园商业楼2栋
9,hospital,3,深圳市南山区慢性病防治院,医疗保健服务;疾病预防机构;疾病预防,839,22.507358,113.928177,南商路16号(南油地铁站A口步行400米)
9,mall,1,宝能·all city购物中心北区,购物服务;商场;购物中心,442,22.501025,113.938275,蛇口街道中心路2233号宝能·all city购物中心北区负一楼
9,mall,2,宝能·all city购物中心(南山店),购物服务;商场;购物中心,568,22.499768,113.939008,蛇口街道深圳湾社区中心路2233号
9,mall,3,宝能·all city南区,购物服务;商场;购物中心,582,22.499432,113.938950,中心路2233号(海月地铁站A口步行120米)
9,park,1,后海滨公园,风景名胜;公园广场;公园,323,22.502530,113.937313,后海招商海月花园二期东北(海月地铁站C口步行380米)
9,park,2,后海批发市场社区公园,风景名胜;公园广场;公园,373,22.504646,113.931640,近海路98号后海市场
9,park,3,东滨社区公园,风景名胜;公园广场;公园,592,22.505676,113.938602,兰香二路(登良地铁站A口步行340米)
10,subway,1,上塘(地铁站),交通设施服务;地铁站;地铁站,651,22.637056,114.012838,4号线/龙华线
10,subway,2,上芬(地铁站),交通设施服务;地铁站;地铁站,1190,22.640394,114.016637,6号线/光明线
10,subway,3,龙胜(地铁站),交通设施服务;地铁站;地铁站,1355,22.644739,114.012010,4号线/龙华线
10,school,1,深圳市龙华区和平实验小学,科教文化服务;学校;小学,753,22.639855,114.007897,新区大道和和平路交汇
10,school,2,华东师范大学未来小学,科教文化服务;学校;小学,759,22.635146,114.015222,民治街道龙塘社区上芬小学路403号(上塘地铁站D1口步行330米)
10,school,3,中建海峡龙华区实验学校小学部项目部,公司企业;公司;公司,819,22.633129,114.016153,向荣路与腾龙路交叉口东北60米
10,hospital,1,元大盛康堂中医(上塘总院),医疗保健服务;诊所;诊所,823,22.639650,114.011875,大浪街道龙平社区腾龙路淘金地电子商务孵化基地展滔商业广场D座102
10,hospital,2,龙塘社康,医疗保健服务;综合医院;卫生院,950,22.632480,114.017401,尚誉·红山里南门东北50米
10,hospital,3,深圳九味堂中医门诊部,医疗保健服务;诊所;诊所,1217,22.632896,114.020026,民治街道龙塘社区星河传奇花园一期118号(民塘上塘路口公交站)
10,mall,1,AT MALL 上塘荟,购物服务;商场;商场,718,22.636888,114.013833,民塘路521号(上塘地铁站A、D出入口)
10,mall,2,海宁广场,购物服务;商场;普通商场,723,22.639575,114.008678,白玉街与新区大道辅路交叉口东北60米
10,mall,3,正佳百货,购物服务;购物相关场所;购物相关场所,827,22.629358,114.015142,民治街道龙塘社区龙塘西十四巷4号101
10,park,1,简上社区公园,风景名胜;公园广场;公园,266,22.634402,114.010347,新区大道与简上路交叉口西北100米
10,park,2,龙塘公园,风景名胜;公园广场;公园,393,22.636531,114.009041,新区大道与洁玉街交叉口西北100米
10,park,3,民治办事处消防安全主题公园,风景名胜;公园广场;公园,575,22.634859,114.013438,简上路与腾龙路交叉口西南约60米
11,school,1,华景小学(北校区)-3号楼,科教文化服务;培训机构;培训机构,1080,23.142503,113.363048,华景北路277号华景小学(北校区)
11,school,2,华景小学(北校区),科教文化服务;学校;小学,1099,23.142340,113.362973,华景北路277号
11,school,3,华景小学(南校区),科教文化服务;学校;小学,1286,23.140575,113.362379,华景路178号
11,hospital,1,广州慈惠医院,医疗保健服务;医疗保健服务场所;医疗保健服务场所,1023,23.144301,113.378670,科韵北路20号
11,hospital,2,华农校医院(旧楼),医疗保健服务;医疗保健服务场所;医疗保健服务场所,1590,23.156160,113.356679,岳洲路106号
11,hospital,3,棠下街道第二社区卫生服务中心,医疗保健服务;综合医院;卫生院,1721,23.134434,113.366473,中山大道西天乐径2-1号
11,mall,1,亚太盛汇,购物服务;特色商业街;特色商业街,233,23.149441,113.368124,汇景北路74号汇景新城
11,mall,2,喀斯玛商城,购物服务;购物相关场所;购物相关场所,750,23.146948,113.363604,科华街与华南东侧路交叉口东300米
11,mall,3,华景新天地,购物服务;商场;商场,1061,23.141600,113.364548,棠下街道华景北路279号-281号
11,park,1,山顶公园,风景名胜;公园广场;公园,687,23.146372,113.376219,广园东汇景路汇景新城
11,park,2,华南农业大学泰山区公园,风景名胜;公园广场;公园,755,23.152536,113.363820,五山路483号华南农业大学
11,park,3,岑村立交小公园,风景名胜;公园广场;公园,1026,23.152790,113.379764,S15沈海高速广州支线出口与S15沈海高速广州支线入口交叉口东北40米
12,subway,1,赤岗塔(地铁站),交通设施服务;地铁站;地铁站,569,23.102133,113.324659,12号线
12,subway,2,广州塔(地铁站),交通设施服务;地铁站;地铁站,756,23.106483,113.323464,3号线;APM线
12,subway,3,赤岗(地铁站),交通设施服务;地铁站;地铁站,894,23.096548,113.334621,12号线;8号线
12,school,1,知信小学泓景校区,科教文化服务;学校;小学,338,23.100449,113.329192,赤岗北路泓景北二街7号
12,school,2,海珠区第二实验小学,科教文化服务;学校;小学,539,23.099544,113.333249,艺洲岛艺洲路600号
12,school,3,知信小学,科教文化服务;学校;小学,653,23.097652,113.328699,[]
12,hospital,1,一方艾业健康管理中心,体育休闲服务;娱乐场所;娱乐场所,321,23.101340,113.332252,珠江帝景苑艺洲路650号二楼一方艾业
12,hospital,2,广州市海珠区赤岗街社区卫生服务中心,医疗保健服务;综合医院;卫生院,594,23.098384,113.328034,赤岗北路18号
12,hospital,3,和睦家医院,医疗保健服务;综合医院;综合医院,868,23.102719,113.338499,琶洲大道31号
12,mall,1,四季天地北座,购物服务;商场;普通商场,302,23.101123,113.328410,赤岗街道赤岗北路128号四季天地北座2楼G06商铺
12,mall,2,四季天地,购物服务;商场;普通商场,336,23.100811,113.328329,赤岗北路118号
12,mall,3,四季天地南座,购物服务;商场;普通商场,410,23.100229,113.327985,赤岗北路118号
12,park,1,海珠区党建公园,风景名胜;公园广场;公园,378,23.103744,113.333722,磨碟沙大街73号(猎德大桥旁边)
12,park,2,全球数字小镇·创作者公园,体育休闲服务;体育休闲服务场所;体育休闲服务场所,674,23.099463,113.325027,新港中路TTT创意园A1-A5栋
12,park,3,伊呢森林,风景名胜;公园广场;公园,696,23.103444,113.323241,艺洲路与艺苑路交叉口北约120米
13,subway,1,飞翔公园(地铁站),交通设施服务;地铁站;地铁站,682,23.168833,113.263635,2号线
13,subway,2,乐嘉路(地铁站),交通设施服务;地铁站;地铁站,954,23.171173,113.260291,(在建)14号线二期;14号线
13,subway,3,白云公园(地铁站),交通设施服务;地铁站;地铁站,1128,23.181613,113.270966,2号线
13,school,1,景泰小学(景泰校区),科教文化服务;学校;小学,412,23.168422,113.271779,云龙路38号
13,school,2,广州市培英中学附属小学,科教文化服务;科教文化场所;科教文化场所,562,23.176191,113.271784,金信路颐和上院二期门口
13,school,3,景泰小学(柯子岭校区),科教文化服务;学校;小学,938,23.164988,113.275368,景云路43号
13,hospital,1,景泰街竹园社区颐康服务站,医疗保健服务;综合医院;卫生院,135,23.170502,113.268929,景泰街道金钟横路220号白兰花园35栋101房
13,hospital,2,景泰街云龙社区颐康服务站,医疗保健服务;综合医院;卫生院,492,23.167128,113.269454,平安路41号云西小区
13,hospital,3,景泰医院,医疗保健服务;综合医院;卫生院,493,23.167112,113.269714,平安路55号
13,mall,1,万达广场北中庭,购物服务;商场;购物中心,262,23.172970,113.267569,云城东路509号广州白云万达广场F1层
13,mall,2,苏宁百货(广州白云万达店),购物服务;商场;普通商场|购物服务;家电电子卖场;苏宁,275,23.172455,113.267111,云城东路507号
13,mall,3,广州白云万达广场,购物服务;商场;购物中心,310,23.172397,113.266727,云城东路509号
13,park,1,云东公园,风景名胜;公园广场;公园,550,23.168165,113.273529,云东中街云东花园
13,park,2,三泰公园,风景名胜;公园广场;公园,753,23.165084,113.267437,[]
13,park,3,三泰公园东苑,风景名胜;公园广场;公园,754,23.164833,113.268587,松柏东街旁
14,subway,1,北京路(地铁站),交通设施服务;地铁站;地铁站,242,23.118762,113.270327,6号线
14,subway,2,海珠广场(地铁站),交通设施服务;地铁站;地铁站,527,23.115234,113.265802,2号线;6号线
14,subway,3,团一大广场(地铁站),交通设施服务;地铁站;地铁站,789,23.118111,113.278266,6号线
14,school,1,八旗二马路小学(西校区),科教文化服务;学校;小学,124,23.116098,113.269645,同庆坊39号(北京路地铁站A口步行300米)
14,school,2,广州市八旗二马路小学,科教文化服务;学校;小学,270,23.116031,113.273292,八旗二马路60号
14,school,3,广州海印实验学校,科教文化服务;学校;中学,302,23.115122,113.268262,回龙路4号之2(海珠广场地铁站F口步行300米)
14,hospital,1,广州市越秀区珠光街社区卫生服务中心(仰忠院区),医疗保健服务;综合医院;卫生院,468,23.119870,113.273627,万福路203号
14,hospital,2,西湖医院(龙藏街),医疗保健服务;综合医院;综合医院,636,23.121251,113.267097,惠福东路457号(大头虾斜对面)
14,hospital,3,越秀区北京街社区卫生服务中心,医疗保健服务;综合医院;卫生院,636,23.121263,113.267108,惠福东路457号
14,mall,1,北京大厦饰博城,购物服务;综合市场;综合市场|购物服务;个人用品/化妆品店;其它个人用品店,153,23.117956,113.270378,北京路68号北京大厦(北京路地铁站A1口步行60米)
14,mall,2,北京路天河城,购物服务;商场;购物中心,211,23.117960,113.269275,北京路168号(地铁6号线北京路站B口步行80米)
14,mall,3,北京路天河城B区,购物服务;商场;购物中心,216,23.117712,113.268979,北京路21号(北京路地铁站A出口)
14,park,1,高第社区口袋公园,风景名胜;公园广场;公园,554,23.119390,113.266228,大南路与书坊街交叉口西南100米
14,park,2,永汉电影公园,风景名胜;公园广场;公园,586,23.113718,113.265938,人民街道果菜西社区一德路237号海珠广场内(南侧)
14,park,3,婚姻文化公园,风景名胜;公园广场;公园,618,23.111579,113.273287,滨江街道草芳围46号
15,subway,1,万胜围(地铁站),交通设施服务;地铁站;地铁站,791,23.097759,113.384560,(在建)8号线东延段;4号线;8号线
15,subway,2,琶洲(地铁站),交通设施服务;地铁站;地铁站,1387,23.098516,113.366700,11号线;8号线
15,school,1,名门珠江小学,科教文化服务;学校;小学,1184,23.095915,113.370717,新港东路南园中街27号南园居内(近中洲中心)
15,school,2,员村小学(美林分校),科教文化服务;学校;小学,1195,23.112199,113.373312,棕林街46号
15,school,3,海珠区第三实验小学,科教文化服务;学校;小学,1300,23.093260,113.386346,新港东路雅郡路1号(雅郡花园)
15,hospital,1,开强纪念医院(中医馆),医疗保健服务;医疗保健服务场所;医疗保健服务场所,426,23.099396,113.377935,昭悦路27号
15,hospital,2,开强纪念医院,医疗保健服务;综合医院;综合医院,491,23.098725,113.378154,新港东路与昭悦路交叉口东北120米
15,hospital,3,广州市海珠区琶洲街琶洲社区卫生服务站,医疗保健服务;综合医院;卫生院,600,23.098273,113.382166,琶洲蟠龙新街1号自编201室
15,mall,1,若比邻(保利天悦店),购物服务;商场;普通商场,237,23.101765,113.381225,宸悦路保利天悦
15,mall,2,琶洲商业广场,购物服务;商场;购物中心,382,23.101466,113.382687,琶洲街道占决新街3号琶洲商业广场1栋A座3007室
15,mall,3,万胜围商业广场,购物服务;商场;商场,439,23.101032,113.383061,琶洲新村2栋A座旁(万胜围地铁站D口步行450米)
15,park,1,保利琶洲公园,风景名胜;公园广场;公园,268,23.105193,113.380457,琶洲村新马路与暄悦西街交叉口西北100米
15,park,2,水博苑,风景名胜;公园广场;公园,438,23.101236,113.375519,琶洲街道阅江中路690号
15,park,3,滑板公园,风景名胜;公园广场;公园,566,23.104798,113.374162,琶洲水博苑
16,subway,1,赤岗塔(地铁站),交通设施服务;地铁站;地铁站,533,23.102133,113.324659,12号线
16,subway,2,赤岗(地铁站),交通设施服务;地铁站;地铁站,681,23.096548,113.334621,12号线;8号线
16,subway,3,客村(地铁站),交通设施服务;地铁站;地铁站,882,23.096197,113.320331,3号线;8号线
16,school,1,知信小学,科教文化服务;学校;小学,135,23.097652,113.328699,[]
16,school,2,知信小学泓景校区,科教文化服务;学校;小学,194,23.100449,113.329192,赤岗北路泓景北二街7号
16,school,3,海珠区第二实验小学,科教文化服务;学校;小学,497,23.099544,113.333249,艺洲岛艺洲路600号
16,hospital,1,广州市海珠区赤岗街社区卫生服务中心,医疗保健服务;综合医院;卫生院,66,23.098384,113.328034,赤岗北路18号
16,hospital,2,一方艾业健康管理中心,体育休闲服务;娱乐场所;娱乐场所,478,23.101340,113.332252,珠江帝景苑艺洲路650号二楼一方艾业
16,hospital,3,广州赤冈中医医院,医疗保健服务;综合医院;综合医院,642,23.093433,113.326282,赤岗西路35号
16,mall,1,四季天地南座,购物服务;商场;普通商场,161,23.100229,113.327985,赤岗北路118号
16,mall,2,四季天地,购物服务;商场;普通商场,219,23.100811,113.328329,赤岗北路118号
16,mall,3,四季天地北座,购物服务;商场;普通商场,253,23.101123,113.328410,赤岗街道赤岗北路128号四季天地北座2楼G06商铺
16,park,1,全球数字小镇·创作者公园,体育休闲服务;体育休闲服务场所;体育休闲服务场所,357,23.099463,113.325027,新港中路TTT创意园A1-A5栋
16,park,2,伊呢森林,风景名胜;公园广场;公园,739,23.103444,113.323241,艺洲路与艺苑路交叉口北约120米
16,park,3,海珠区党建公园,风景名胜;公园广场;公园,767,23.103744,113.333722,磨碟沙大街73号(猎德大桥旁边)
17,school,1,白云广附金悦实验小学,科教文化服务;学校;小学,741,23.156095,113.194581,[]
17,school,2,沙凤小学(北校区),科教文化服务;学校;小学,964,23.159810,113.195343,春满街18号
17,school,3,广州市英伦外籍人员子女学校·国际学校,科教文化服务;学校;中学,1216,23.147167,113.195549,金沙洲创佳路4号
17,hospital,1,健仕云医互联网医院,医疗保健服务;医疗保健服务场所;医疗保健服务场所,977,23.148020,113.192998,沙凤三路3号501-B510
17,hospital,2,广东医寻医院互联网医院,医疗保健服务;医疗保健服务场所;医疗保健服务场所,990,23.148125,113.193375,沙凤三路3号b馆b129、b509
17,hospital,3,金沙互联网共享医院,医疗保健服务;医疗保健服务场所;医疗保健服务场所,1023,23.147812,113.193454,沙凤一路与创佳路交叉口西南160米
17,mall,1,永旺梦乐城(白云店),购物服务;商场;购物中心|购物服务;超级市场;超市,929,23.150546,113.194993,沙凤三路1号
17,mall,2,佳德荟,购物服务;商场;普通商场,986,23.153723,113.196921,创辉路与环洲五路交叉口西北80米
18,school,1,凤凰城中英文学校,科教文化服务;学校;中学|科教文化服务;学校;小学,394,23.134469,113.589777,新塘镇广园东碧桂园凤凰城
18,school,2,龙文教育(凤馨苑校区),科教文化服务;培训机构;培训机构,428,23.137636,113.594275,新塘汽车城大道268号凤馨苑2号门
18,school,3,永宁街第二小学,科教文化服务;学校;小学,546,23.140313,113.594809,汽车城大道
18,hospital,1,长岗中心村卫生站,医疗保健服务;诊所;诊所,1265,23.140565,113.602150,新塘长岗新村(长岗新村街北)
18,hospital,2,广东省水电医院(凤凰城院区),医疗保健服务;综合医院;综合医院,1317,23.138304,113.602975,汽车城大道与长岗新村街交叉口东北100米
18,hospital,3,永宁街岗丰村卫生站,医疗保健服务;诊所;诊所,1589,23.151785,113.594129,中心村东路与农昌二街交叉口北60米
18,mall,1,广汇天地,购物服务;商场;购物中心,995,23.134308,113.598962,永宁街道凤凰北横路1号
18,mall,2,长实广场,购物服务;商场;购物中心,1180,23.137900,113.601639,永宁街长岗村华兴商贸综合市场
18,mall,3,东进商城(群星新邨店),购物服务;商场;商场,1474,23.128743,113.600409,纵一路与汇太西路交叉口北40米
18,park,1,罗马街心公园,风景名胜;公园广场;公园,1446,23.128493,113.580472,凤鸣苑六街
18,park,2,永宁街廉洁文化主题公园,风景名胜;公园广场;公园,1450,23.133837,113.576681,永宁街凤凰城酒店南
18,park,3,荔枝公园,风景名胜;公园广场;公园,1452,23.133155,113.576928,新塘凤凰城(碧桂园2环岛北)
19,school,1,珠海市香洲区东桥小学,科教文化服务;学校;小学,486,22.218156,113.521666,硕丰路与东桥大街交叉口西80米
19,school,2,香洲区杨匏安纪念学校,科教文化服务;学校;小学|科教文化服务;学校;幼儿园,682,22.219596,113.518121,北山因是园街79号
19,school,3,珠海容闳学校,科教文化服务;学校;小学,945,22.228051,113.518125,寿丰路2号
19,hospital,1,香洲区南屏镇东桥社区卫生服务站,医疗保健服务;医疗保健服务场所;医疗保健服务场所,594,22.216444,113.524512,绿景玺悦湾南区东门东南100米
19,hospital,2,原东桥卫生站,医疗保健服务;诊所;诊所,742,22.221115,113.517141,秀毓园东南门西南90米
19,hospital,3,珠海市香洲区拱北街道港昌社区卫生服务站,医疗保健服务;综合医院;卫生院,1059,22.228836,113.531212,港昌路507号
19,mall,1,红树湾商业中心,购物服务;商场;普通商场,94,22.220999,113.523965,前河西路233号
19,mall,2,秀毓园平价商场(秀毓园B区店),购物服务;便民商店/便利店;便民商店/便利店,638,22.221559,113.518118,香州区北山路2号秀毓园
19,mall,3,公园道商场,购物服务;购物相关场所;购物相关场所,644,22.226325,113.520425,公园道
19,park,1,前河西路滨河公园,风景名胜;公园广场;公园,347,22.224807,113.525158,前河东路滨河公园
19,park,2,东桥社区公园,风景名胜;公园广场;公园,495,22.217535,113.522856,东桥大街2号
19,park,3,前山滨河公园宠物公园,风景名胜;公园广场;公园,917,22.220527,113.533107,夏湾路554号
20,school,1,珠海容闳学校,科教文化服务;学校;小学,407,22.228051,113.518125,寿丰路2号
20,school,2,珠海市香洲区第二十三小学,科教文化服务;学校;小学,998,22.239248,113.519054,港口三路66号
20,school,3,香洲区杨匏安纪念学校,科教文化服务;学校;小学|科教文化服务;学校;幼儿园,1248,22.219596,113.518121,北山因是园街79号
20,hospital,1,珠海市香洲区华发新城社区卫生服务中心,医疗保健服务;医疗保健服务场所;医疗保健服务场所,284,22.229666,113.518463,珠海大道1号华发新城
20,hospital,2,华发新城社区卫生服务中心,医疗保健服务;综合医院;卫生院,285,22.229667,113.518456,珠海大道1号华发新城
20,hospital,3,珠海市香洲区前山街道前山社区卫生服务站,医疗保健服务;综合医院;卫生院,995,22.238857,113.524436,粤海西路118号
20,mall,1,公园道商场,购物服务;购物相关场所;购物相关场所,466,22.226325,113.520425,公园道
20,mall,2,珠海环宇城,商务住宅;楼宇;商住两用楼宇,543,22.233977,113.524757,前山前河北路96号
20,mall,3,天天平价商场(漾湖明居店),购物服务;便民商店/便利店;便民商店/便利店,753,22.237223,113.521609,前山港昌路903号
20,park,1,港昌社区公园,风景名胜;公园广场;公园,648,22.231191,113.527334,前山海荣新村西北(珠海大道东南)
20,park,2,前河西路滨河公园,风景名胜;公园广场;公园,757,22.224807,113.525158,前河东路滨河公园
20,park,3,前山滨河公园,风景名胜;公园广场;公园,770,22.235052,113.515473,前山河畔
21,school,1,珠海市香洲区云峰小学,科教文化服务;学校;小学,217,22.272547,113.502853,凤山街道扣扉路299号
21,school,2,珠海市香洲区第十五小学,科教文化服务;学校;小学,1141,22.282436,113.509494,凤山街道敬学路1号
21,school,3,珠海市南溪小学,科教文化服务;学校;小学,1292,22.285352,113.506907,前山镇南溪村东信街285号
21,hospital,1,长沙社区卫生服务站,生活服务;生活服务场所;生活服务场所,716,22.277511,113.508640,长沙新苑东南1门东北80米
21,hospital,2,珠海上衝医院北院区,医疗保健服务;综合医院;综合医院,1195,22.271129,113.513530,明珠北路68号原珠海市口腔医院
21,hospital,3,新香社区卫生服务站,医疗保健服务;综合医院;卫生院,1418,22.274564,113.516278,梅华西路943号
21,mall,1,智达家具业大商场,购物服务;家居建材市场;家具城,332,22.276325,113.499975,南坦路1号智达家具1号馆
21,mall,2,四而美家私商场,购物服务;家居建材市场;家具城,334,22.277134,113.500992,南溪村名贤家私城前排
21,mall,3,万科里,商务住宅;商务住宅相关;商务住宅相关,401,22.271222,113.504191,扣扉路与碧澜路交叉口南140米
21,park,1,康济亭社区公园,风景名胜;公园广场;公园,495,22.278654,113.504150,香洲大道与南福路交叉口东40米
21,park,2,TOD小镇社区公园,风景名胜;公园广场;公园,645,22.268775,113.503659,云峰路华发城建未来荟
21,park,3,南溪公园,风景名胜;公园广场;公园,926,22.282801,113.502436,南溪市场53号
22,school,1,珠海市斗门区尚峰学校(建设中),科教文化服务;学校;小学|科教文化服务;学校;中学,578,22.176894,113.317884,尚峰学校
22,hospital,1,白藤湖社区卫生服务中心,医疗保健服务;综合医院;卫生院,1272,22.177527,113.325108,农民新村南路一号
22,hospital,2,遵义医科大学第五附属(珠海)医院,医疗保健服务;综合医院;综合医院,1459,22.164756,113.303105,珠峰大道1439号遵义医学院第五附属(珠海)医院
22,hospital,3,卫生服务中心,医疗保健服务;综合医院;卫生院,1480,22.174540,113.299163,新伟街东风村办公楼
22,mall,1,东方墅商业街二期,购物服务;特色商业街;特色商业街,971,22.170390,113.304757,珠峰大道1288号
22,mall,2,珠海斗门世荣万达广场,购物服务;商场;购物中心,1230,22.166474,113.304419,井岸镇知行路118号
22,park,1,邻里社区公园,风景名胜;公园广场;公园,282,22.174476,113.316091,井岸镇河坊路旁
22,park,2,黄杨河湿地公园,风景名胜;公园广场;公园,716,22.175181,113.320242,井岸镇西堤路与河山路交叉口东北40米
22,park,3,华发水郡省级湿地公园,风景名胜;风景名胜;省级景点,739,22.167015,113.313606,井岸镇珠峰大道288号
23,school,1,珠海高新区礼和小学,科教文化服务;学校;小学,368,22.399558,113.548066,北城西二路与金业南路交叉口东北100米
23,school,2,珠海高新区凤鸣小学,科教文化服务;学校;小学,1356,22.403547,113.556642,北城东四路211号
23,hospital,1,北沙社区卫生服务站,医疗保健服务;综合医院;卫生院,1576,22.398240,113.529496,唐家湾镇金鼎北沙下北村5号
23,hospital,2,上栅社区卫生服务站,医疗保健服务;综合医院;卫生院,1590,22.385461,113.537773,上栅大街
23,hospital,3,星湾社区卫生服务站,医疗保健服务;综合医院;卫生院,1615,22.404610,113.558885,科技八路8号
23,mall,1,友丰五金建材城(高新区店),购物服务;家居建材市场;建材五金市场,669,22.398869,113.551278,高新区新湾六路65号
23,mall,2,中医药电商城,商务住宅;商务住宅相关;商务住宅相关,1051,22.389027,113.542320,金创一路35号
23,park,1,天星四路公园,风景名胜;公园广场;公园,208,22.400021,113.545199,金业西路与新沙六路交叉口东北120米
23,park,2,新湾七路公园,风景名胜;公园广场;公园,212,22.400059,113.545210,天星四路公园
23,park,3,新湾六路公园,体育休闲服务;体育休闲服务场所;体育休闲服务场所,1064,22.406178,113.550492,兴中路300号
24,school,1,星火教育·小初高辅导(福永校区),科教文化服务;培训机构;培训机构,1004,22.671908,113.825784,福永大道正风大厦3楼
24,school,2,文昌小学,科教文化服务;学校;小学,1275,22.683254,113.844256,腾丰二路9号
24,hospital,1,深圳市宝安中医院(集团)中药应用研究中心,科教文化服务;科研机构;科研机构,628,22.673633,113.838486,龙王庙路A16
24,hospital,2,深圳永福医院,医疗保健服务;综合医院;综合医院,655,22.674936,113.827822,福永街道白石厦社区白石厦路1-2号
24,hospital,3,深圳市宝安区福永人民医院院本部,医疗保健服务;综合医院;综合医院,1702,22.671108,113.818505,福永镇德丰路81号
24,mall,1,华美商场,购物服务;超级市场;超市,787,22.672675,113.839639,龙王庙路2-1号
24,mall,2,逸海百货(石厦路),购物服务;商场;普通商场,803,22.674906,113.826296,白石厦大道57号
24,mall,3,万福龙洲,购物服务;商场;普通商场|购物服务;专卖店;专营店,889,22.674123,113.825719,福永街道白石厦社区石厦路05号
24,park,1,乌石岗公园,风景名胜;公园广场;公园,435,22.681077,113.834068,兴益路与美华路交叉口西北120米
24,park,2,健民公园,风景名胜;公园广场;公园,721,22.674962,113.827120,白石厦西区裕华园东12栋健民公园
24,park,3,福湾游廊,风景名胜;风景名胜相关;旅游景点,954,22.681443,113.825661,福海街道桥头社区稔山二路8号立新湖公园(东南角)
25,subway,1,永湖(地铁站),交通设施服务;地铁站;地铁站,570,22.658995,114.218042,3号线/龙岗线
25,subway,2,坳背(地铁站),交通设施服务;地铁站;地铁站,970,22.668713,114.213518,14号线/东部快线
25,subway,3,荷坳(地铁站),交通设施服务;地铁站;地铁站,1136,22.673079,114.224310,3号线/龙岗线
25,school,1,华南师范大学附属龙岗乐城小学,科教文化服务;学校;小学,580,22.668377,114.219474,坳背路28号
25,school,2,水晶城小学,科教文化服务;学校;小学,1068,22.671956,114.225557,园山街道荷坳社区龙岗大道(荷坳地铁站A口步行120米)
25,school,3,深圳市龙岗区金安小学,科教文化服务;科教文化场所;科教文化场所,1235,22.671773,114.213140,坳二路69号
25,hospital,1,深圳市龙岗区第三人民医院,医疗保健服务;综合医院;综合医院,1866,22.648354,114.212844,横岗街道松柏路278号(横岗地铁站B口步行320米)
25,hospital,2,大康卫生站,医疗保健服务;诊所;诊所,2396,22.644886,114.232967,山子下路与山子下路南巷交叉口西北20米
25,hospital,3,深圳信息职业技术大学校医院,医疗保健服务;综合医院;综合医院,2658,22.686561,114.214903,龙翔大道2188号深圳信息职业技术大学内
25,mall,1,深圳龙岗星河COCO City(暂停营业),商务住宅;楼宇;商务写字楼,420,22.660788,114.217958,园山街道星河盛境二期营销中心对面
25,mall,2,永湖平价厨器商场,购物服务;家居建材市场;厨卫市场,925,22.657497,114.214565,嘉华路与联合路交叉路口(永湖地铁站C口步行440米)
25,mall,3,时尚e城FEC,商务住宅;产业园区;产业园区,1119,22.664784,114.210184,坳东路与坳一路交叉口南140米
25,park,1,坳一公园,风景名胜;公园广场;公园,990,22.666501,114.211947,坳东路1巷(坳背地铁站D口步行370米)
25,park,2,乐城公园,风景名胜;公园广场;公园,1158,22.673593,114.218966,坳园路与坳牌路交叉口西40米
25,park,3,荷坳街心公园,风景名胜;公园广场;公园,1459,22.675263,114.226886,荷坳路12西北方向107米
26,subway,1,百鸽笼(地铁站),交通设施服务;地铁站;地铁站,440,22.595442,114.130380,(在建)17号线/平湖线;5号线/环中线
26,subway,2,罗岗(地铁站),交通设施服务;地铁站;地铁站,876,22.593863,114.123891,(在建)17号线/平湖线
26,subway,3,求水山(地铁站),交通设施服务;地铁站;地铁站,1320,22.598931,114.142411,(在建)17号线/平湖线
26,school,1,深圳市百外世纪小学,科教文化服务;学校;小学,601,22.594832,114.127260,罗岗路70号
26,school,2,深圳市信义实验小学,科教文化服务;学校;小学,826,22.592057,114.124089,布吉街道罗岗社区百鸽路181号
26,school,3,春蕾小学,科教文化服务;学校;小学,1114,22.594239,114.121604,荣华路192号
26,hospital,1,深圳市龙岗区第二人民医院,医疗保健服务;综合医院;综合医院,295,22.594228,114.133342,布吉街道创作路3号
26,hospital,2,龙岗区第二人民医院(新力有家便利店),医疗保健服务;医疗保健服务场所;医疗保健服务场所,324,22.594250,114.133869,罗岗路26-1号龙岗区第二人民医院3楼新力有家便利店
26,hospital,3,深圳罗岗医院,医疗保健服务;综合医院;综合医院,770,22.595784,114.125980,罗岗路76号(罗岗派出所旁)
26,mall,1,深圳布吉万象汇,购物服务;商场;购物中心,130,22.592820,114.131457,布吉街道罗岗社区翔鸽路2号
26,mall,2,深圳龙岗万象汇店,购物服务;购物相关场所;购物相关场所,174,22.593377,114.131909,布吉街道翔鸽路2号信义·金御半山三期
26,mall,3,礼信汇,购物服务;商场;商场,222,22.592431,114.130063,布吉街道罗岗社区罗岗路38号
26,park,1,龙岗区布吉街道法治文化主题公园,风景名胜;公园广场;公园,308,22.592087,114.129137,信义荔山公园内(南侧)
26,park,2,信义荔山公园,风景名胜;公园广场;公园,388,22.593795,114.129001,布吉街道罗岗社区罗岗路
26,park,3,百鸽笼社区公园,风景名胜;公园广场;公园,405,22.594915,114.130028,翔鸽路与创富南路交叉口西南40米
27,school,1,深圳市松岗第二小学,科教文化服务;学校;小学,330,22.762731,113.860988,松岗大道26号
27,school,2,深圳市宝安区文山小学,科教文化服务;学校;小学,706,22.759827,113.851759,东方大道与金开路交叉口西南180米
27,school,3,东方小学,科教文化服务;学校;小学,1148,22.761094,113.847383,松岗街道东方居委会大楼右侧150米
27,hospital,1,深圳市宝安中医院(集团)联投嘉苑社区健康服务中心,医疗保健服务;综合医院;卫生院,410,22.763857,113.856385,松岗街道东富路联投嘉苑1栋01层01号
27,hospital,2,深圳市宝安区松岗人民医院潭头社区健康服务中心,医疗保健服务;综合医院;卫生院,1536,22.750199,113.848938,广深路松岗段38号
27,hospital,3,深圳市宝安区中医院燕罗社区健康服务中心,医疗保健服务;医疗保健服务场所;医疗保健服务场所,2101,22.777995,113.850192,沙江路27号4楼(松岗公园地铁站D口步行130米)
27,mall,1,东方新天地,购物服务;商场;购物中心,21,22.760609,113.858677,东方大道36号
27,mall,2,新天地商场(白马路店),购物服务;便民商店/便利店;便民商店/便利店,306,22.758419,113.857004,白马路11号
27,mall,3,前进商城,购物服务;综合市场;小商品市场,574,22.765850,113.859530,松岗街道楼岗社区前进公社二期
27,park,1,松岗西水湿地体验区,风景名胜;风景名胜相关;旅游景点,342,22.759684,113.861685,大田洋b3号
27,park,2,楼岗社区户外文体公园,风景名胜;公园广场;公园|体育休闲服务;运动场馆;户外健身场所,1215,22.771631,113.859803,松岗大道42号附近
27,park,3,根竹园横坑公园,风景名胜;公园广场;公园,1259,22.768330,113.867699,消防主题公园(根竹园社区)(西南角)
28,subway,1,双拥街(地铁站),交通设施服务;地铁站;地铁站,358,22.698648,114.132978,10号线/坂田线
28,subway,2,平湖(地铁站),交通设施服务;地铁站;地铁站,592,22.693670,114.125805,10号线/坂田线
28,school,1,平湖守真小学,科教文化服务;学校;小学,849,22.690324,114.127299,平湖街道上大街2号(平湖地铁站A口步行360米)
28,school,2,新南小学,科教文化服务;学校;小学,889,22.702899,114.123151,[]
28,school,3,平湖中心学校,科教文化服务;学校;中学,970,22.689295,114.132430,平湖街道新南社区新南路1号
28,hospital,1,深圳市龙岗区第五人民医院,医疗保健服务;综合医院;综合医院,115,22.698257,114.130564,平湖街道双拥街77号(双拥街地铁站C口步行170米)
28,hospital,2,念妇贤医院,风景名胜;风景名胜;风景名胜,746,22.691953,114.125793,述昌街与上大街交叉口东北20米
28,hospital,3,深圳侨爱中医医院(医保定点),医疗保健服务;综合医院;综合医院,998,22.702121,114.121245,平湖街道山厦社区东林一路10号山厦文化大楼101
28,mall,1,金沙百货,购物服务;便民商店/便利店;便民商店/便利店,83,22.697144,114.130275,双拥街亚洲电器行旁(双拥街地铁站C口步行240米)
28,mall,2,新都百货,购物服务;商场;普通商场,259,22.698449,114.132024,双拥街83号(双拥街地铁站C口旁)
28,mall,3,富雅家私商场(力东路),购物服务;家居建材市场;家具城,260,22.699962,114.129428,平龙东路197号
28,park,1,凤凰山国家矿山公园,风景名胜;公园广场;公园,916,22.701387,114.137599,平湖街道凤凰社区凤凰大道旁
28,park,2,烈士公园,风景名胜;公园广场;公园,986,22.697324,114.120062,山厦路1附近
29,subway,1,黄贝岭(地铁站),交通设施服务;地铁站;地铁站,202,22.546095,114.136332,2号线(8号线);5号线/环中线
29,subway,2,文锦(地铁站),交通设施服务;地铁站;地铁站,735,22.542455,114.131123,9号线/梅林线
29,subway,3,怡景(地铁站),交通设施服务;地铁站;地铁站,1024,22.555856,114.140115,5号线/环中线
29,school,1,深圳市螺岭外国语实验学校(二部),科教文化服务;学校;小学,378,22.549617,114.132386,黄贝凤凰街41号
29,school,2,深圳市北斗小学,科教文化服务;学校;小学,497,22.543442,114.134053,春风路1016号(文锦地铁站C口步行340米)
29,school,3,深圳市靖轩小学,科教文化服务;学校;小学,747,22.549945,114.142301,沿河北路1007号
29,hospital,1,凤凰社区健康服务中心,医疗保健服务;综合医院;卫生院,442,22.551692,114.135293,凤凰路113号
29,hospital,2,榕树家中医·精准推拿·运动康复(翎汇店),医疗保健服务;医疗保健服务场所;医疗保健服务场所,759,22.544274,114.129074,南湖街道深南东路2011号万科翎汇深南广场三层14号
29,hospital,3,深圳市人民医院网络医院延续服务部,医疗保健服务;综合医院;综合医院,1220,22.557178,114.129435,翠竹路1015号(翠竹地铁站D口步行300米)
29,mall,1,四海通商行(国台酒专卖),购物服务;专卖店;烟酒专卖店,215,22.546140,114.134244,黄贝岭冶金大厦一楼1096-10
29,mall,2,京基凤凰印象花园,商务住宅;住宅区;住宅小区,221,22.547171,114.133374,凤凰路181号-1(黄贝岭地铁站F1口步行160米)
29,mall,3,简爱(京基·凤凰印象商业广场店),购物服务;专卖店;专营店,223,22.547198,114.133346,黄贝街道凤凰路181号京基凤凰印象商场1层中庭
29,park,1,文华社区公园,风景名胜;公园广场;公园,242,22.545593,114.134949,深南东路1022号文华大厦
29,park,2,黄贝岭公园,风景名胜;公园广场;公园,333,22.549589,114.137984,黄贝岭四街入口
29,park,3,新谊社区公园,风景名胜;公园广场;公园,359,22.549949,114.132908,凤凰街与经三路交叉口东南40米
30,subway,1,沙壆(地铁站),交通设施服务;地铁站;地铁站,447,22.686481,114.364930,16号线/龙坪线
30,subway,2,比亚迪北(地铁站),交通设施服务;地铁站;地铁站,647,22.682131,114.361085,云巴1号线
30,subway,3,龙背(地铁站),交通设施服务;地铁站;地铁站,928,22.687313,114.359490,云巴1号线
30,school,1,深圳市坪山区东纵小学,科教文化服务;学校;小学,257,22.685231,114.366303,沙新路6号
30,school,2,坪山第二小学,科教文化服务;学校;小学,1010,22.687142,114.376105,东纵路7号
30,school,3,深圳市坪山区龙背小学,科教文化服务;学校;小学,1051,22.687547,114.358261,东纵路170-1号
30,hospital,1,坪山区人民医院石井社区健康服务中心,医疗保健服务;综合医院;卫生院,1431,22.690355,114.378809,金田路1号
30,hospital,2,深圳市坪山区人民医院,医疗保健服务;综合医院;综合医院,1723,22.687216,114.351116,坪山街道人民街19号
30,hospital,3,大工业区社康服务中心,医疗保健服务;医疗保健服务场所;医疗保健服务场所,2003,22.700934,114.364666,燕子岭四路与燕子岭五路交汇处
30,mall,1,卓宁汇购物广场(富润·乐庭店),购物服务;购物相关场所;购物相关场所,429,22.686930,114.366778,富润乐庭3栋B座1-3楼(沙壆地铁站C口步行170米)
30,mall,2,同富裕商贸城,购物服务;商场;普通商场,484,22.683194,114.372010,沙博社区比亚迪路与瑞景路交叉口
30,mall,3,竹园北区商业广场,购物服务;购物相关场所;购物相关场所,1443,22.673925,114.357375,竹园北区
30,park,1,云霄公园,风景名胜;公园广场;公园,593,22.681380,114.361826,龙坪路与比亚迪路交叉口(比亚迪北地铁站B口步行90米)
30,park,2,沙博青草林,风景名胜;风景名胜相关;旅游景点,710,22.689120,114.369590,瑞景路与东纵路交叉口西北240米
30,park,3,瑞景公园,风景名胜;公园广场;公园,766,22.685133,114.374432,比亚迪路21号(燕子湖地铁站A口步行360米)
31,subway,1,海山(地铁站),交通设施服务;地铁站;地铁站,751,22.555537,114.237711,2号线(8号线)
31,subway,2,沙头角(地铁站),交通设施服务;地铁站;地铁站,1188,22.554349,114.223162,2号线(8号线)
31,school,1,深圳市盐田区外国语小学海涛分校,科教文化服务;学校;小学,247,22.548136,114.235125,海景二路1106号
31,school,2,深圳市盐田区田心小学,科教文化服务;学校;小学,419,22.552025,114.230301,恩上路6号
31,school,3,外国语小学东和分校,科教文化服务;学校;小学,583,22.544765,114.234771,沙头角镇
31,hospital,1,深圳市盐田区人民医院(主院区),医疗保健服务;综合医院;综合医院,839,22.557450,114.233700,沙头角梧桐路2010号(海山地铁站A2口步行450米)
31,mall,1,新大洋电器商场(诗宁大厦店),购物服务;家电电子卖场;综合家电商场,171,22.551117,114.234718,海涛路59号诗宁大厦F1层
31,mall,2,荣津·瀚海汇,购物服务;商场;商场,220,22.551050,114.231919,沙头角沙盐路3063瀚海东岸
31,mall,3,碧海城(宝银旺店),购物服务;商场;普通商场,388,22.553213,114.234895,深盐路与沙盐路交叉口东南80米
31,park,1,东和社区文体街心公园,风景名胜;公园广场;公园,225,22.551685,114.232611,官下路77号
31,park,2,海景二路社区公园,风景名胜;公园广场;公园,260,22.549182,114.236081,海景二路与金融路交叉口北80米
31,park,3,东和公园,风景名胜;公园广场;公园,311,22.547159,114.233145,海涛路
33,subway,1,华强北(地铁站),交通设施服务;地铁站;地铁站,357,22.544441,114.085413,2号线(8号线);7号线/西丽线
33,subway,2,华强路(地铁站),交通设施服务;地铁站;地铁站,581,22.540459,114.085133,1号线/罗宝线
33,subway,3,华新(地铁站),交通设施服务;地铁站;地铁站,672,22.548981,114.086654,3号线/龙岗线;7号线/西丽线
33,school,1,桃李未来华强北小学部校区,科教文化服务;培训机构;培训机构,644,22.546630,114.087900,振兴路赛格科技园4栋东二楼(华夏银行正对面)
33,school,2,国际教育网升学中心·田面校区,科教文化服务;培训机构;培训机构,683,22.541351,114.076437,华富街道深南中路4026号田面城市大厦14层
33,school,3,南华小学,科教文化服务;学校;小学,834,22.542440,114.074247,田面二街与田面四街交叉口西南100米
33,hospital,1,固生堂深圳华强分院,医疗保健服务;诊所;诊所,607,22.539670,114.084019,福田街道福华社区福虹路4号华强花园A、B、C座301A、102E、202A、203
33,hospital,2,中山大学附属第八医院,医疗保健服务;综合医院;三级甲等医院,715,22.538751,114.079554,深南中路3025号
33,hospital,3,深圳市中医院福田院区综合楼,医疗保健服务;综合医院;三级甲等医院,886,22.537291,114.084878,福华路1号深圳市中医院福田院区
33,mall,1,中航城君尚购物中心A区,购物服务;商场;普通商场|购物服务;商场;购物中心,179,22.543179,114.082137,华强北街道华航社区中航路1号
33,mall,2,V尚街精品外贸商场,购物服务;服装鞋帽皮具店;服装鞋帽皮具店|购物服务;商场;商场,227,22.544873,114.084163,中航路42号(华强北地铁站C口旁)
33,mall,3,买点元件商城,购物服务;家电电子卖场;家电电子卖场,229,22.544864,114.084182,振华路与中航路交叉口北60米
33,park,1,深圳中心公园C2区-景亭,风景名胜;风景名胜相关;旅游景点,239,22.543157,114.080423,深圳中心公园C2区(华强北地铁站C口步行470米)
33,park,2,深圳中心公园-大草坪,风景名胜;风景名胜相关;旅游景点,296,22.542926,114.079889,深圳中心公园C2区
33,park,3,深圳中心公园-生态景观林,风景名胜;公园广场;公园,316,22.544671,114.078878,深圳中心公园C2区内(北侧)
34,subway,1,东角头(地铁站),交通设施服务;地铁站;地铁站,827,22.486325,113.931149,(在建)13号线二期南延;2号线(8号线)
34,subway,2,歌剧院(地铁站),交通设施服务;地铁站;地铁站,1310,22.483662,113.940675,(在建)13号线二期南延
34,subway,3,水湾(地铁站),交通设施服务;地铁站;地铁站,1394,22.488389,113.919686,2号线(8号线)
34,school,1,滨海小学,科教文化服务;学校;小学,554,22.481755,113.933517,金世纪路2-1号
34,school,2,蛇口学校小学部,科教文化服务;学校;小学,889,22.486946,113.931002,湾厦路与花果路交叉口西南40米
34,school,3,太子湾学校(小学部),科教文化服务;学校;小学,1118,22.485440,113.920370,海昌街153号(水湾地铁站D口步行440米)
34,hospital,1,深圳市南山区中医院半岛城邦社区健康服务中心,医疗保健服务;医疗保健服务场所;医疗保健服务场所,554,22.481032,113.933905,半岛城邦四期B栋1-2楼
34,hospital,2,深圳招商力宝太子湾医院,医疗保健服务;综合医院;综合医院,2049,22.474378,113.909658,望海路1006号太子湾医院
34,hospital,3,深圳市前海蛇口自贸区医院,医疗保健服务;综合医院;综合医院,2072,22.496750,113.922180,工业七路128号
34,mall,1,南海汇,购物服务;商场;普通商场,626,22.484206,113.926126,望海路1089-51号三楼君益成运动康复
34,mall,2,正旺商业城,购物服务;商场;普通商场,626,22.484135,113.931803,金世纪路18号(东角头地铁站B口步行280米)
34,mall,3,东方商厦(蓝漪花园店),购物服务;商场;商场,727,22.485578,113.927400,望海路1068号蓝漪花园
34,park,1,渔港中心公园,风景名胜;公园广场;公园,272,22.481234,113.930346,金世纪路与半岛四路交叉口北180米
34,park,2,深圳湾公园F区,风景名胜;公园广场;公园,483,22.477668,113.933286,半岛四路与半岛二路交叉口东南240米
34,park,3,深圳湾公园G区,风景名胜;公园广场;公园,598,22.483667,113.925668,望海路与公园南路交叉口东南240米
35,subway,1,园岭(地铁站),交通设施服务;地铁站;地铁站,383,22.556122,114.104494,9号线/梅林线
35,subway,2,红岭北(地铁站),交通设施服务;地铁站;地铁站,398,22.562055,114.104586,7号线/西丽线;9号线/梅林线
35,subway,3,笋岗(地铁站),交通设施服务;地铁站;地铁站,672,22.563350,114.111095,(在建)17号线/平湖线;7号线/西丽线
35,school,1,荔园小学(荔园教育集团)八卦岭校区,科教文化服务;学校;小学,324,22.559699,114.103516,八卦二路与八卦十街交叉口东北100米
35,school,2,深圳市罗湖区桃园小学,科教文化服务;学校;小学,432,22.559914,114.110654,笋岗街道桃园路128号(笋岗地铁站出入口步行390米)
35,school,3,深圳市红岭小学,科教文化服务;学校;小学,631,22.553581,114.108456,松园路8(园岭地铁站C口步行490米)
35,hospital,1,深圳鹏程医院,医疗保健服务;综合医院;综合医院,423,22.555319,114.107705,桂园街道笋岗东路3013号长虹大厦1楼
35,hospital,2,深圳博爱曙光医院,医疗保健服务;综合医院;综合医院,477,22.562168,114.109679,宝安北路2088号深业物流大厦(宝能中心南侧对面)22
35,hospital,3,园岭社区健康服务中心,医疗保健服务;综合医院;卫生院,851,22.552619,114.101968,园岭东路5号(红岭地铁站E口步行350米)
35,mall,1,HALO广场(桃园路),购物服务;商场;购物中心,83,22.558399,114.107092,梨园路8号(园岭地铁站D口步行440米)
35,mall,2,HALO广场2期,商务住宅;楼宇;商务写字楼,103,22.558402,114.107363,笋岗街道梨园路8号
35,mall,3,中洲新天地商场,购物服务;商场;普通商场,309,22.558068,114.109420,宝安北路1004-6号
35,park,1,物资集团社区公园,风景名胜;公园广场;公园,283,22.556528,114.107336,笋岗东路万通大厦(园岭地铁站D口步行270米)
35,park,2,时代社区公园,风景名胜;公园广场;公园,305,22.556239,114.106346,笋岗东路3008号(园岭地铁站D口步行90米)
35,park,3,鸿翔花园社区公园,风景名胜;公园广场;公园,422,22.555401,114.105198,笋岗东路与红岭北路交叉口东南80米
38,school,1,新智学校,科教文化服务;学校;学校,1216,22.737853,114.016831,福城街道章阁社区永航路
38,school,2,碧澜外国语小学,科教文化服务;学校;小学,1490,22.738652,114.032382,泗黎路111号
38,hospital,1,龙华区福城街道百信社区健康服务中心,医疗保健服务;综合医院;卫生院,2451,22.728975,114.009356,大水坑路47-9
38,mall,1,华庭百货(澳明路店),购物服务;便民商店/便利店;便民商店/便利店,69,22.747327,114.021316,澳门工业区21号章阁华庭
38,mall,2,汇隆百货,购物服务;商场;普通商场,291,22.745695,114.020066,[]
38,mall,3,中港星广场,购物服务;商场;购物中心|商务住宅;楼宇;商务写字楼|购物服务;商场;普通商场,455,22.744316,114.019412,桂月路与章阁路交叉口东100米中港星商业广场
38,park,1,桂平公园,风景名胜;公园广场;公园,405,22.747007,114.017910,福城街道章阁社区章阁新村旁
38,park,2,章阁背礼园社区公园,风景名胜;公园广场;公园,1043,22.738648,114.019513,龙澜大道辅路
38,park,3,健康主题公园,风景名胜;公园广场;公园,1150,22.737891,114.018536,龙澜大道辅路与背礼园路交叉口西北80米
39,subway,1,坪洲(地铁站),交通设施服务;地铁站;地铁站,458,22.568908,113.870711,(在建)15号线;1号线/罗宝线
39,subway,2,宝体(地铁站),交通设施服务;地铁站;地铁站,1045,22.560741,113.880641,1号线/罗宝线
39,subway,3,西乡公园(地铁站),交通设施服务;地铁站;地铁站,1340,22.578524,113.882626,(在建)15号线;(在建)20号线二期
39,school,1,深圳市宝安区海韵学校(集团)径贝小学,科教文化服务;学校;小学,96,22.567781,113.875145,西乡街道径贝社区256号
39,school,2,海城小学,科教文化服务;学校;小学,349,22.571689,113.874283,宝安大道与码头路交会处前城滨海花园内
39,school,3,海裕小学,科教文化服务;学校;小学,577,22.564444,113.878440,新湖路与和丰路交汇处
39,hospital,1,深圳市宝安区中心医院福中福社区健康服务中心,医疗保健服务;综合医院;卫生院,755,22.562914,113.871241,西乡宝源路1009号广兴源互联网基地A区6栋101
39,hospital,2,宝安区中心医院二期,医疗保健服务;综合医院;综合医院,1352,22.579925,113.880075,[]
39,hospital,3,宝安中心医院,医疗保健服务;综合医院;综合医院,1361,22.580001,113.880095,广深路西乡段233号
39,mall,1,宝安大仟里,购物服务;商场;普通商场|购物服务;商场;购物中心,307,22.570167,113.872656,西乡街道麻布社区海城路3号
39,mall,2,福中福商业城D区,商务住宅;商务住宅相关;商务住宅相关,406,22.565325,113.873525,新湖路与径贝新村路交叉口西南120米
39,mall,3,珍珍中老年(鸣乐花园店),购物服务;服装鞋帽皮具店;服装鞋帽皮具店,438,22.572300,113.876778,鸣乐东街28号鸣乐花园
39,park,1,宝源街心公园,风景名胜;公园广场;公园,699,22.563096,113.871986,宝源南路1016号附近
39,park,2,82区社区公园,风景名胜;公园广场;公园,957,22.563738,113.882808,明玉路16-55号
39,park,3,海裕社区N2社区公园,风景名胜;公园广场;公园,1018,22.563259,113.883161,新中心区(宝体地铁站B口步行350米)
40,subway,1,沙尾(地铁站),交通设施服务;地铁站;地铁站,442,22.520798,114.042579,7号线/西丽线
40,subway,2,石厦(地铁站),交通设施服务;地铁站;地铁站,771,22.523708,114.053616,3号线/龙岗线;7号线/西丽线
40,subway,3,益田(地铁站),交通设施服务;地铁站;地铁站,899,22.516287,114.050987,3号线/龙岗线
40,school,1,新沙小学,科教文化服务;学校;小学,177,22.523193,114.044432,新洲三路66号(沙尾地铁站C口步行320米)
40,school,2,福田教育,科教文化服务;培训机构;培训机构,282,22.524675,114.048225,新洲九街与新洲一街交叉口东20米
40,school,3,新洲小学,科教文化服务;学校;小学,388,22.525363,114.048952,新洲九街2号
40,hospital,1,新洲市政卫生部,政府机构及社会团体;政府机关;地市级政府及事业单位,89,22.523772,114.046448,绿景新苑二期西南门东南110米
40,hospital,2,深圳新风和睦家医院,医疗保健服务;综合医院;综合医院,301,22.520622,114.044796,沙头街道新洲社区福强路4012号新风大厦一层(负2层-27层)
40,hospital,3,深圳市福田区新洲社区健康服务站,医疗保健服务;综合医院;卫生院,332,22.523598,114.049322,新南苑(石厦地铁站E口步行490米)
40,mall,1,绿景佐阾新邑购物中心,购物服务;商场;购物中心,216,22.521457,114.047394,新洲二街56号永旺(沙尾地铁站C口步行440米)
40,mall,2,祥云·天都世纪商业中心,购物服务;商场;普通商场,312,22.521067,114.043969,新洲三街15号(沙尾地铁站C口步行100米)
40,mall,3,天虹商场(星河明居店),购物服务;商场;普通商场|购物服务;商场;购物中心,713,22.522461,114.053059,福民路127号星河明居1-5层
40,park,1,新洲公园,风景名胜;公园广场;公园,328,22.523319,114.049324,新洲路与福民路交叉口西北40米
40,park,2,沙尾社区公园,体育休闲服务;休闲场所;休闲场所,394,22.520925,114.043052,新洲三街与福强路交叉口东40米
40,park,3,福新社区公园,风景名胜;公园广场;公园,615,22.517898,114.048393,福强路与石厦一街交叉口西北100米
41,subway,1,红岭南(地铁站),交通设施服务;地铁站;地铁站,342,22.538490,114.106261,11号线/机场线;9号线/梅林线
41,subway,2,大剧院(地铁站),交通设施服务;地铁站;地铁站,588,22.541800,114.107811,1号线/罗宝线;2号线(8号线);5号线/环中线
41,subway,3,鹿丹村(地铁站),交通设施服务;地铁站;地铁站,685,22.535708,114.108625,9号线/梅林线
41,school,1,深圳市滨河小学,科教文化服务;学校;小学,393,22.536272,114.105444,红岭南路1002号(鹿丹村地铁站D口步行320米)
41,school,2,燕贻学校,科教文化服务;学校;小学,437,22.539075,114.107225,金塘街与金华街交叉口北60米
41,school,3,深圳市福田区上步小学,科教文化服务;学校;小学,481,22.537788,114.098467,埔尾村55号(近南园路)
41,hospital,1,深圳市福田区东园社区健康服务站,医疗保健服务;综合医院;卫生院,111,22.538088,114.103476,东园路42号(红岭南地铁站E口步行280米)
41,hospital,2,深圳平乐骨伤科医院(福田院区),医疗保健服务;专科医院;骨科医院,148,22.537651,114.103157,东园路30号(红岭南地铁站C口步行340米)
41,hospital,3,深圳平乐骨伤科医院正骨科,医疗保健服务;专科医院;骨科医院,150,22.537675,114.103375,东园路与巴登街交叉口东120米
41,mall,1,家和乐购物广场(埔尾康乐楼店),购物服务;超级市场;超市,125,22.538559,114.101837,巴登村57号埔尾康乐楼(红岭南地铁站C口步行370米)
41,mall,2,中深烟草贸易中心商场,购物服务;专卖店;烟酒专卖店,218,22.537075,114.103525,东园路17号滨河新村(红岭南地铁站E口步行320米)
41,mall,3,iN城市广场,购物服务;商场;购物中心,436,22.539703,114.098805,深南中路1095号
41,park,1,滨江新村社区公园,风景名胜;公园广场;公园,284,22.536778,114.101559,东园路87-89号
41,park,2,掬月亭,风景名胜;风景名胜相关;旅游景点,481,22.543192,114.104028,红岭中路荔枝公园(红岭南地铁站A口步行410米)
41,park,3,荔枝公园,风景名胜;公园广场;公园,733,22.545539,114.102313,红岭中路1001号
42,subway,1,益田(地铁站),交通设施服务;地铁站;地铁站,430,22.516287,114.050987,3号线/龙岗线
42,subway,2,石厦(地铁站),交通设施服务;地铁站;地铁站,453,22.523708,114.053616,3号线/龙岗线;7号线/西丽线
42,subway,3,皇岗村(地铁站),交通设施服务;地铁站;地铁站,916,22.523138,114.059823,7号线/西丽线
42,school,1,荔园教育集团众孚校区,科教文化服务;学校;小学,249,22.520610,114.049168,新洲南路3018号
42,school,2,益强小学,科教文化服务;学校;小学,330,22.518830,114.054433,石厦路6号
42,school,3,深圳市福田区石厦小学,科教文化服务;学校;小学,507,22.524675,114.051325,石厦北四街与石厦北一街交叉口西60米
42,hospital,1,深圳市福田区新洲社区健康服务站,医疗保健服务;综合医院;卫生院,449,22.523598,114.049322,新南苑(石厦地铁站E口步行490米)
42,hospital,2,益田社区健康服务站,医疗保健服务;综合医院;卫生院,629,22.514482,114.051015,益田村中心广场东侧康乐楼一、二楼
42,hospital,3,新洲市政卫生部,政府机构及社会团体;政府机关;地市级政府及事业单位,662,22.523772,114.046448,绿景新苑二期西南门东南110米
42,mall,1,石厦时代广场,购物服务;商场;购物中心,189,22.521022,114.053092,石厦地铁站A口步行220米
42,mall,2,新港商城,购物服务;购物相关场所;购物相关场所,269,22.521834,114.053381,福保街道石厦北二街89号新天世纪商务中心A座805B
42,mall,3,天虹商场(星河明居店),购物服务;商场;普通商场|购物服务;商场;购物中心,304,22.522461,114.053059,福民路127号星河明居1-5层
42,park,1,福强北休闲公园带,风景名胜;公园广场;公园,377,22.516921,114.050304,福强路3010号(益田地铁站C口步行70米)
42,park,2,福新社区公园,风景名胜;公园广场;公园,406,22.517898,114.048393,福强路与石厦一街交叉口西北100米
42,park,3,新洲公园,风景名胜;公园广场;公园,422,22.523319,114.049324,新洲路与福民路交叉口西北40米
43,subway,1,坪山围(地铁站),交通设施服务;地铁站;地铁站,322,22.691398,114.343660,14号线/东部快线;16号线/龙坪线
43,subway,2,坪环(地铁站),交通设施服务;地铁站;地铁站,674,22.685287,114.346762,16号线/龙坪线
43,subway,3,六和(地铁站),交通设施服务;地铁站;地铁站,866,22.696013,114.337737,16号线/龙坪线
43,school,1,六联小学4栋,科教文化服务;学校;小学,325,22.691508,114.339836,迎春路45号深圳市坪山区六联小学
43,school,2,深圳市坪山区六联小学,科教文化服务;学校;小学,361,22.691835,114.339739,迎春路45号(坪山围地铁站F口步行310米)
43,school,3,坪山中心小学,科教文化服务;学校;小学,394,22.687414,114.345053,坪山街道东纵路342号
43,hospital,1,坪山社康服务中心,医疗保健服务;综合医院;卫生院,944,22.697107,114.338530,坪山街道飞西村宝西路21号
43,hospital,2,深圳市坪山区人民医院,医疗保健服务;综合医院;综合医院,990,22.687216,114.351116,坪山街道人民街19号
43,hospital,3,坪环社康服务中心,医疗保健服务;医疗保健服务场所;医疗保健服务场所,1056,22.680488,114.345935,坪环路5号心海城1栋2层
43,mall,1,泰兴厨具电器商场,购物服务;家居建材市场;厨卫市场,275,22.689949,114.339166,坪山新区向荣街13号(坪山围地铁站H口步行370米)
43,mall,2,六和城商业广场,购物服务;商场;商场,515,22.692833,114.338676,坪山新区坪山新区深汕公路与东纵路交汇处168号
43,mall,3,诗篇(六和城商业广场店),购物服务;服装鞋帽皮具店;服装鞋帽皮具店,515,22.692725,114.338525,坪山街道六联社区深汕路(坪山段)168号坪山益田假日世界L1-33
43,park,1,坪山革命烈士纪念园,风景名胜;公园广场;公园,265,22.688960,114.344278,坪山街道和平社区建设路61号
43,park,2,飞西公园,风景名胜;公园广场;公园,864,22.696808,114.340385,和富路与飞西路交叉口西140米
43,park,3,联馨绿廊口袋公园,风景名胜;公园广场;公园,927,22.697385,114.340393,恒大成小区
44,subway,1,莲塘(地铁站),交通设施服务;地铁站;地铁站,744,22.564118,114.174291,2号线(8号线)
44,subway,2,梧桐山南(地铁站),交通设施服务;地铁站;地铁站,774,22.557850,114.183207,2号线(8号线)
44,school,1,莲南小学(莲馨校区),科教文化服务;学校;学校,83,22.564683,114.180707,莲馨家园(国威路)
44,school,2,深圳市罗湖外语小学,科教文化服务;学校;小学,966,22.567502,114.172644,粤港路88号(莲塘地铁站D口步行410米)
44,school,3,知育青少年俱乐部(莲塘校区),科教文化服务;培训机构;培训机构,1057,22.566697,114.171470,莲塘街道仙湖社区国威路72号高新技术产业第一园区116栋6楼
44,hospital,1,罗湖中医院住院楼,医疗保健服务;综合医院;三级甲等医院,295,22.566584,114.179575,莲塘仙桐路16号罗湖中医院
44,hospital,2,罗湖中医院儿童营养门诊,医疗保健服务;医疗保健服务场所;医疗保健服务场所,333,22.566538,114.179015,仙桐路与国威路交叉口北260米
44,hospital,3,罗湖中医院,医疗保健服务;综合医院;三级甲等医院,334,22.566726,114.179176,莲塘仙桐路16号
44,mall,1,深圳市罗湖区莲塘街道奥丽侬内衣店,购物服务;服装鞋帽皮具店;服装鞋帽皮具店,1084,22.561820,114.171413,莲塘街道邻里岁宝二楼奥丽侬内衣专柜
44,mall,2,岁宝邻里,购物服务;商场;购物中心,1084,22.561820,114.171409,莲塘路168号
44,mall,3,新亚洲购物广场(莲塘店),购物服务;超级市场;超市,1227,22.565970,114.169662,莲塘坳下村173号楼(仙湖路地铁站B2口步行410米)
44,park,1,莲塘仙湖社区公园,风景名胜;公园广场;公园,366,22.564355,114.177964,国威路与仙桐路交叉口西北40米
44,park,2,仙桐体育公园-群众服务点,风景名胜;风景名胜相关;旅游景点,542,22.561215,114.185276,仙桐路仙桐体育公园(南侧)
44,park,3,莲塘仙湖社区公园(西区),风景名胜;风景名胜相关;旅游景点,582,22.564349,114.175857,莲塘聚福路莲塘花园(莲塘地铁站A口步行60米)
45,subway,1,华强北(地铁站),交通设施服务;地铁站;地铁站,358,22.544441,114.085413,2号线(8号线);7号线/西丽线
45,subway,2,华新(地铁站),交通设施服务;地铁站;地铁站,586,22.548981,114.086654,3号线/龙岗线;7号线/西丽线
45,subway,3,华强路(地铁站),交通设施服务;地铁站;地铁站,656,22.540459,114.085133,1号线/罗宝线
45,school,1,桃李未来华强北小学部校区,科教文化服务;培训机构;培训机构,595,22.546630,114.087900,振兴路赛格科技园4栋东二楼(华夏银行正对面)
45,school,2,国际教育网升学中心·田面校区,科教文化服务;培训机构;培训机构,764,22.541351,114.076437,华富街道深南中路4026号田面城市大厦14层
45,school,3,红岭教育集团华富实验学校,科教文化服务;学校;中学|科教文化服务;学校;小学,884,22.553542,114.083563,华富路2011号
45,hospital,1,固生堂深圳华强分院,医疗保健服务;诊所;诊所,696,22.539670,114.084019,福田街道福华社区福虹路4号华强花园A、B、C座301A、102E、202A、203
45,hospital,2,中山大学附属第八医院,医疗保健服务;综合医院;三级甲等医院,819,22.538751,114.079554,深南中路3025号
45,hospital,3,深圳市中医院福田院区综合楼,医疗保健服务;综合医院;三级甲等医院,975,22.537291,114.084878,福华路1号深圳市中医院福田院区
45,mall,1,V尚街精品外贸商场,购物服务;服装鞋帽皮具店;服装鞋帽皮具店|购物服务;商场;商场,221,22.544873,114.084163,中航路42号(华强北地铁站C口旁)
45,mall,2,买点元件商城,购物服务;家电电子卖场;家电电子卖场,223,22.544864,114.084182,振华路与中航路交叉口北60米
45,mall,3,中航城君尚购物中心A区,购物服务;商场;普通商场|购物服务;商场;购物中心,280,22.543179,114.082137,华强北街道华航社区中航路1号
45,park,1,深圳中心公园D2区,风景名胜;公园广场;公园,284,22.546876,114.079744,福田河绿道深圳中心公园-D1区
45,park,2,鹏怡苑,风景名胜;公园广场;公园,287,22.547610,114.084076,航天路150-2号(华新地铁站A1口步行310米)
45,park,3,深圳中心公园C2区-景亭,风景名胜;风景名胜相关;旅游景点,336,22.543157,114.080423,深圳中心公园C2区(华强北地铁站C口步行470米)
46,subway,1,燕南(地铁站),交通设施服务;地铁站;地铁站,20,22.544541,114.092561,2号线(8号线)
46,subway,2,科学馆(地铁站),交通设施服务;地铁站;地铁站,508,22.540618,114.095173,1号线/罗宝线;6号线/光明线
46,subway,3,通新岭(地铁站),交通设施服务;地铁站;地铁站,620,22.549126,114.096273,3号线/龙岗线;6号线/光明线
46,school,1,荔园小学(玮鹏校区),科教文化服务;学校;小学,239,22.543007,114.094314,燕南地铁站A口步行330米
46,school,2,荔园小学,科教文化服务;学校;小学,463,22.545970,114.097006,华强北街道通新岭社区同福路1号
46,school,3,桃李未来华强北小学部校区,科教文化服务;培训机构;培训机构,547,22.546630,114.087900,振兴路赛格科技园4栋东二楼(华夏银行正对面)
46,hospital,1,深圳市第二人民医院(中西医结合分院),医疗保健服务;综合医院;三级甲等医院,308,22.544877,114.095731,振华路2号
46,hospital,2,福田区通新岭社区健康服务中心,医疗保健服务;综合医院;卫生院,466,22.546972,114.096489,上步路1010号(通新岭地铁站E1口步行50米)
46,hospital,3,深圳市中医院福田院区胸痛中心,医疗保健服务;综合医院;三级甲等医院,1047,22.537248,114.086386,福田街道福华路1号中医院福田院区住院部16楼
46,mall,1,华强东商业中心,购物服务;商场;商场,99,22.545094,114.093553,燕南路88号(燕南地铁站B口旁)
46,mall,2,嘉年华购物广场(曼哈商业广场店),购物服务;超级市场;超市,306,22.546075,114.090225,兰天路与兰海路交叉口西北80米
46,mall,3,海润商业广场,商务住宅;楼宇;楼宇相关,399,22.546407,114.089387,振兴路411栋(华强北地铁站B口步行420米)
46,park,1,华强北甘泉路近零碳社区公园,风景名胜;公园广场;公园,163,22.545239,114.094177,甘泉路5号(燕南地铁站B口步行120米)
46,park,2,上步社区公园,风景名胜;公园广场;公园,517,22.548090,114.096080,上步路(通新岭地铁站A2口步行50米)
46,park,3,红荔社区公园,风景名胜;公园广场;公园,539,22.548755,114.090033,红荔路与华发路交叉口东100米
47,subway,1,凯丰(地铁站),交通设施服务;地铁站;地铁站,351,22.568998,114.063621,(在建)22号线/中轴线
47,subway,2,上梅林(地铁站),交通设施服务;地铁站;地铁站,438,22.570459,114.059415,4号线/龙华线;9号线/梅林线
47,subway,3,孖岭(地铁站),交通设施服务;地铁站;地铁站,708,22.568458,114.067778,10号线/坂田线;9号线/梅林线
47,school,1,深圳市梅丽小学,科教文化服务;学校;小学,376,22.566286,114.057501,黄祠巷85号(上梅林地铁站G口步行340米)
47,school,2,香港中文大学(深圳)附属彩田学校(小学部),科教文化服务;学校;小学,586,22.561804,114.062759,莲花支路彩田村(莲花北地铁站A1口步行340米)
47,school,3,深圳市福田区梅华小学(保安室),公共设施;公共设施;公共设施,673,22.572362,114.063805,梅林街道上梅林凯丰路20号
47,hospital,1,福田区第二人民医院(中康院区),医疗保健服务;综合医院;综合医院,237,22.566448,114.058843,中康路25、27号
47,hospital,2,深圳市福田区孖岭社区健康服务站,医疗保健服务;医疗保健服务场所;医疗保健服务场所,568,22.568660,114.066280,梅林路40-1号(孖岭地铁站D口步行140米)
47,hospital,3,北京大学深圳医院综合楼,医疗保健服务;综合医院;三级甲等医院,1664,22.557369,114.048591,莲花街道莲花路1120号北京大学深圳医院综合楼五楼
47,mall,1,金丰宝五金商场,购物服务;家居建材市场;建材五金市场,180,22.565261,114.061465,梅华路3-1号先科花园大门口左则第1和第2间铺面
47,mall,2,连城新天地(梅康路店),购物服务;商场;普通商场,200,22.568630,114.060789,梅林街道梅林路83-1号上梅林卓悦汇连城新天地负一楼
47,mall,3,卓悦汇购物中心,购物服务;商场;购物中心,335,22.569759,114.060273,梅林街道梅都社区中康路126号(上梅林地铁站接驳)
47,park,1,梅林云榕公园,体育休闲服务;体育休闲服务场所;体育休闲服务场所,251,22.567384,114.063491,凯丰路5号
47,park,2,凯丰社区公园,风景名胜;公园广场;公园,331,22.564716,114.063356,奥士达路2-11号
47,park,3,梅丰消防主题公园,风景名胜;公园广场;公园,465,22.563212,114.058880,中康路华茂苑东南角(近上梅林地铁站、莲花北地铁站)
48,subway,1,回龙埔(地铁站),交通设施服务;地铁站;地铁站,1037,22.729192,114.235861,16号线/龙坪线
48,subway,2,尚景(地铁站),交通设施服务;地铁站;地铁站,1364,22.729359,114.243587,16号线/龙坪线
48,subway,3,吉祥(地铁站),交通设施服务;地铁站;地铁站,1493,22.709488,114.244318,3号线/龙岗线
48,school,1,龙岗区实验学校小学部,科教文化服务;学校;小学,672,22.724225,114.230575,爱心路与夏长路交叉口东180米
48,school,2,深圳市龙岗区实验学校(东区),科教文化服务;学校;中学,747,22.725775,114.231625,白湖路与泽福路交叉口西南120米
48,school,3,龙城小学,科教文化服务;学校;小学,1057,22.724177,114.244332,长兴南路32号
48,hospital,1,深圳市龙岗区人民医院,医疗保健服务;综合医院;三级甲等医院,1050,22.726294,114.227612,龙城街道愉园社区爱心路53号
48,hospital,2,龙岗区人民医院翰邻城社区健康服务中心,医疗保健服务;综合医院;卫生院|医疗保健服务;诊所;诊所,1344,22.731643,114.232108,龙平西路万科翰邻城12栋D座1-2楼
48,hospital,3,保利上城社区健康服务中心,医疗保健服务;综合医院;卫生院,1400,22.707553,114.237792,龙城街道岗背路35-38号
48,mall,1,天虹商场,购物服务;商场;购物中心,248,22.720034,114.237549,吉祥路与清林路交叉口
48,mall,2,金基吉祥广场,购物服务;商场;商场,257,22.718865,114.237380,吉祥路与清林路交汇处
48,mall,3,天虹商场-天虹超市服务台,购物服务;购物相关场所;购物相关场所,288,22.720176,114.237929,吉祥路与清林路交叉口天虹商场F2
48,park,1,海关社区公园,风景名胜;公园广场;公园,211,22.719202,114.233224,清林路与余石岭路交叉口西南40米
48,park,2,罗马公园,风景名胜;风景名胜相关;旅游景点,584,22.725057,114.234072,欧景花园4栋
48,park,3,龙城公园大草坪,风景名胜;风景名胜相关;旅游景点,636,22.715284,114.231472,清林路77号
49,subway,1,人民南(地铁站),交通设施服务;地铁站;地铁站,422,22.535514,114.118154,9号线/梅林线
49,subway,2,罗湖(地铁站),交通设施服务;地铁站;地铁站,501,22.531861,114.118623,1号线/罗宝线
49,subway,3,国贸(地铁站),交通设施服务;地铁站;地铁站,633,22.539671,114.118826,1号线/罗宝线
49,school,1,深圳市南湖小学,科教文化服务;学校;小学,463,22.539064,114.121826,友谊路48号(向西村地铁站D2口步行370米)
49,school,2,深圳市罗湖小学,科教文化服务;学校;小学,482,22.537322,114.118308,南湖街道罗湖桥社区人民南路2031号
49,school,3,深圳市向西小学,科教文化服务;学校;小学,789,22.539614,114.127959,向西路19号(向西村地铁站B口步行250米)
49,hospital,1,固生堂深圳罗湖分院,医疗保健服务;诊所;诊所,299,22.534335,114.119363,南湖街道人民南路1008号环球经贸广场北塔二层219室
49,hospital,2,罗湖医院春风路门岗,医疗保健服务;综合医院;综合医院,309,22.537625,114.122875,友谊路47号深圳市罗湖区人民医院
49,hospital,3,深圳市罗湖区人民医院,医疗保健服务;综合医院;三级甲等医院,326,22.537850,114.122198,友谊路47号
49,mall,1,一商场(新银座·尚食荟店),购物服务;商场;普通商场,234,22.535648,114.120076,春风路3045号新银座·尚食荟F1层
49,mall,2,C99商场(会员生活天地),购物服务;购物相关场所;购物相关场所,264,22.534325,114.119725,大中华环球经贸广场(大中华环球金融中心店)
49,mall,3,佳宁娜时尚购物广场D座,商务住宅;住宅区;住宅小区,284,22.536862,114.120414,春风路3048号(人民南地铁站C口步行230米)
49,park,1,春风乐园,风景名胜;公园广场;公园,335,22.536028,114.119183,人民南路1069号(人民南地铁站C口步行80米)
49,park,2,罗湖区法制文化主题公园,风景名胜;公园广场;公园,583,22.537085,114.117042,建设路与罗小二街交叉口北40米
49,park,3,南湖街道消防主题公园,风景名胜;公园广场;公园,668,22.540743,114.120627,南湖路3005号边(国贸地铁站B口步行210米)
50,subway,1,上梅林(地铁站),交通设施服务;地铁站;地铁站,546,22.570459,114.059415,4号线/龙华线;9号线/梅林线
50,subway,2,莲花北(地铁站),交通设施服务;地铁站;地铁站,561,22.560538,114.059402,4号线/龙华线
50,subway,3,凯丰(地铁站),交通设施服务;地铁站;地铁站,612,22.568998,114.063621,(在建)22号线/中轴线
50,school,1,深圳市梅丽小学,科教文化服务;学校;小学,170,22.566286,114.057501,黄祠巷85号(上梅林地铁站G口步行340米)
50,school,2,香港中文大学(深圳)附属彩田学校(小学部),科教文化服务;学校;小学,572,22.561804,114.062759,莲花支路彩田村(莲花北地铁站A1口步行340米)
50,school,3,深圳市福田区外国语学校(梅红校区),科教文化服务;学校;小学,725,22.567329,114.052168,梅村路43号(梅村地铁站A口步行90米)
50,hospital,1,福田区第二人民医院(中康院区),医疗保健服务;综合医院;综合医院,98,22.566448,114.058843,中康路25、27号
50,hospital,2,深圳市福田区孖岭社区健康服务站,医疗保健服务;医疗保健服务场所;医疗保健服务场所,826,22.568660,114.066280,梅林路40-1号(孖岭地铁站D口步行140米)
50,hospital,3,北京大学深圳医院综合楼,医疗保健服务;综合医院;三级甲等医院,1403,22.557369,114.048591,莲花街道莲花路1120号北京大学深圳医院综合楼五楼
50,mall,1,金丰宝五金商场,购物服务;家居建材市场;建材五金市场,259,22.565261,114.061465,梅华路3-1号先科花园大门口左则第1和第2间铺面
50,mall,2,连城新天地(梅康路店),购物服务;商场;普通商场,388,22.568630,114.060789,梅林街道梅林路83-1号上梅林卓悦汇连城新天地负一楼
50,mall,3,卓悦汇购物中心,购物服务;商场;购物中心,485,22.569759,114.060273,梅林街道梅都社区中康路126号(上梅林地铁站接驳)
50,park,1,梅丰消防主题公园,风景名胜;公园广场;公园,262,22.563212,114.058880,中康路华茂苑东南角(近上梅林地铁站、莲花北地铁站)
50,park,2,中康公园,风景名胜;公园广场;公园,446,22.568891,114.056540,上梅林(梅村地铁站C1口步行280米)
50,park,3,凯丰社区公园,风景名胜;公园广场;公园,461,22.564716,114.063356,奥士达路2-11号
51,subway,1,笋岗(地铁站),交通设施服务;地铁站;地铁站,346,22.563350,114.111095,(在建)17号线/平湖线;7号线/西丽线
51,subway,2,红岗(地铁站),交通设施服务;地铁站;地铁站,570,22.569372,114.112973,(在建)17号线/平湖线
51,subway,3,洪湖(地铁站),交通设施服务;地铁站;地铁站,862,22.566056,114.122465,7号线/西丽线
51,school,1,笋岗小学,科教文化服务;学校;小学,200,22.566194,114.114351,笋岗街道笋岗社区宝岗路146号
51,school,2,深圳市罗湖区桃园小学,科教文化服务;学校;小学,621,22.559914,114.110654,笋岗街道桃园路128号(笋岗地铁站出入口步行390米)
51,school,3,深圳市洪湖小学,科教文化服务;学校;小学,778,22.559946,114.120118,笋岗街道湖景社区洪湖五街23号
51,hospital,1,深圳博爱曙光医院,医疗保健服务;综合医院;综合医院,532,22.562168,114.109679,宝安北路2088号深业物流大厦(宝能中心南侧对面)22
51,hospital,2,深圳鹏程医院,医疗保健服务;综合医院;综合医院,1214,22.555319,114.107705,桂园街道笋岗东路3013号长虹大厦1楼
51,hospital,3,罗湖医院集团翠竹街道社区健康服务中心,医疗保健服务;综合医院;卫生院,1339,22.562018,114.127040,贝丽南路25号
51,mall,1,佳满福,购物服务;便民商店/便利店;便民商店/便利店|购物服务;超级市场;超市,221,22.565405,114.112417,笋岗街道宝岗路33号(笋岗地铁站C2口步行190米)
51,mall,2,宝能环球汇(罗湖店),购物服务;商场;普通商场,479,22.564186,114.109611,宝安北路3008号罗湖宝能环球汇南门1层
51,mall,3,深圳笋岗万象食家,购物服务;商场;购物中心,480,22.561698,114.110613,梅园路71号(笋岗地铁站出入口步行100米)
51,park,1,洪湖公园(文锦北路)-芦雪榭,风景名胜;风景名胜相关;旅游景点,466,22.565148,114.118732,文锦北路2023号洪湖公园内(西侧)
51,park,2,初心公园,风景名胜;公园广场;公园,491,22.562948,114.109749,宝安北路与梅园路交界(笋岗地铁站E口步行150米)
51,park,3,洪湖公园(文锦北路)-疏林草地,风景名胜;风景名胜相关;旅游景点,524,22.565682,114.119181,文锦北路2023号洪湖公园内
52,subway,1,笋岗(地铁站),交通设施服务;地铁站;地铁站,623,22.563350,114.111095,(在建)17号线/平湖线;7号线/西丽线
52,subway,2,大塘龙(地铁站),交通设施服务;地铁站;地铁站,639,22.556277,114.112877,(在建)17号线/平湖线
52,subway,3,洪湖(地铁站),交通设施服务;地铁站;地铁站,835,22.566056,114.122465,7号线/西丽线
52,school,1,深圳市洪湖小学,科教文化服务;学校;小学,381,22.559946,114.120118,笋岗街道湖景社区洪湖五街23号
52,school,2,深圳市罗湖区桃园小学,科教文化服务;学校;小学,616,22.559914,114.110654,笋岗街道桃园路128号(笋岗地铁站出入口步行390米)
52,school,3,笋岗小学,科教文化服务;学校;小学,630,22.566194,114.114351,笋岗街道笋岗社区宝岗路146号
52,hospital,1,深圳博爱曙光医院,医疗保健服务;综合医院;综合医院,720,22.562168,114.109679,宝安北路2088号深业物流大厦(宝能中心南侧对面)22
52,hospital,2,罗湖医院集团翠竹街道社区健康服务中心,医疗保健服务;综合医院;卫生院,1084,22.562018,114.127040,贝丽南路25号
52,hospital,3,深圳鹏程医院,医疗保健服务;综合医院;综合医院,1102,22.555319,114.107705,桂园街道笋岗东路3013号长虹大厦1楼
52,mall,1,知汇昊晟广场,购物服务;商场;普通商场|汽车服务;汽车服务相关;汽车服务相关,510,22.560621,114.111596,宝岗路3号(笋岗地铁站C1口步行340米)
52,mall,2,深圳笋岗万象食家,购物服务;商场;购物中心,617,22.561698,114.110613,梅园路71号(笋岗地铁站出入口步行100米)
52,mall,3,荣风华商城(嘉宝田花园店),购物服务;文化用品店;文化用品店,656,22.556797,114.111983,笋岗东路2008-1号嘉宝田花园鸿图阁1层
52,park,1,洪湖公园(文锦北路)-渌亭,风景名胜;风景名胜相关;旅游景点,240,22.560285,114.118799,文锦北路2023号洪湖公园内(南侧)
52,park,2,鹭岛,风景名胜;风景名胜相关;旅游景点,316,22.558634,114.118406,文锦北路2023号洪湖公园内(南侧)
52,park,3,蛙鸣湾,风景名胜;风景名胜相关;旅游景点,415,22.563004,114.119902,文锦北路2023号洪湖公园内(南侧)
