community_id,poi_category,poi_rank,poi_name,poi_type,distance_m,lat,lng,address
1,subway,1,高新园(地铁站),交通设施服务;地铁站;地铁站,421,22.540236,113.953842,(在建)20号线二期;1号线/罗宝线
1,subway,2,高新中(地铁站),交通设施服务;地铁站;地铁站,1013,22.547012,113.945319,13号线/石岩线
1,subway,3,深大(地铁站),交通设施服务;地铁站;地铁站,1223,22.538667,113.944173,(在建)20号线二期;13号线/石岩线;1号线/罗宝线
1,school,1,南山外国语学校(集团)科华学校小学部,科教文化服务;学校;小学,448,22.546710,113.957796,莱英路红树别院
1,school,2,鑫辉餐饮海滨小学六(6)班,科教文化服务;科教文化场所;科教文化场所,964,22.550665,113.948676,科丰路2号特发信息港大厦F1层
1,school,3,中建科工高新小学项目施工现场,公司企业;公司;公司,1142,22.534597,113.950060,科技南路24号(高新南地铁站D口步行250米)
1,hospital,1,深圳市南山区医疗集团总部,医疗保健服务;医疗保健服务场所;医疗保健服务场所,55,22.544064,113.954085,铜鼓路28-18号(高新园地铁站A口步行480米)
1,mall,1,c.city-E馆,购物服务;商场;普通商场,137,22.543776,113.953283,粤海街道铜鼓路55号大冲都市花园L1-L2层
1,mall,2,大冲都市花园商场,购物服务;商场;商场|生活服务;生活服务场所;生活服务场所,156,22.543076,113.953422,铜鼓路大冲都市花园(高新园地铁站B口步行310米)
1,mall,3,深圳万象天地,购物服务;商场;购物中心,271,22.541865,113.955960,粤海街道大冲社区深南大道9668号
1,park,1,水滴花园(深圳万象天地),风景名胜;公园广场;公园,319,22.541343,113.955896,科发路19号深圳万象天地L4层
1,park,2,大沙河生态长廊绿道,风景名胜;风景名胜相关;旅游景点,667,22.539934,113.959416,沙河西路辅路与深南沙河立交交叉口北40米
1,park,3,科苑公园,风景名胜;公园广场;公园,770,22.549101,113.949591,科苑花园58区
2,subway,1,高新南(地铁站),交通设施服务;地铁站;地铁站,654,22.532797,113.950000,9号线/梅林线
2,subway,2,科苑(地铁站),交通设施服务;地铁站;地铁站,815,22.527019,113.946195,13号线/石岩线;2号线(8号线)
2,subway,3,粤海门(地铁站),交通设施服务;地铁站;地铁站,948,22.531821,113.945645,13号线/石岩线;9号线/梅林线
2,school,1,深圳市南山外国语学校(集团)科苑小学,科教文化服务;学校;小学,736,22.523514,113.948995,高新南环路69号(科苑地铁站E1口步行370米)
2,school,2,深圳南山外国语学校(集团)高新小学,科教文化服务;学校;小学,762,22.534298,113.950568,科技南路22-1号(高新南地铁站D口步行220米)
2,school,3,中建科工高新小学项目施工现场,公司企业;公司;公司,816,22.534597,113.950060,科技南路24号(高新南地铁站D口步行250米)
2,hospital,1,纳贝医生运动康复中心(深圳湾店),医疗保健服务;医疗保健服务场所;医疗保健服务场所,1365,22.517362,113.947869,滨海大道3001号深圳湾体育中心
2,mall,1,安邻荟商场,购物服务;超级市场;超市,637,22.533325,113.951175,高新安荟邻(高新南地铁站D口旁)
2,mall,2,高新安荟邻,购物服务;商场;商场,660,22.533505,113.951072,科技南八路与白石路交叉口西北60米
2,mall,3,荟食广场,购物服务;商场;普通商场,984,22.537029,113.952973,创维半导体设计大厦裙楼B1层106F2
2,park,1,大沙河生态长廊绿道-紫花风铃木,风景名胜;风景名胜相关;旅游景点,282,22.530049,113.955946,沙河西路辅路与高新南九道交叉口东140米
2,park,2,滨福广场街心小公园,风景名胜;公园广场;公园,541,22.525369,113.949761,科技南路7-6号滨福世纪广场
2,park,3,云之园,风景名胜;公园广场;公园,619,22.531938,113.949525,科技南路(高新南地铁站A口步行190米)
3,school,1,深圳大学附属华南学校,科教文化服务;学校;中学,879,22.681576,114.144832,平湖街道万福路33号
3,school,2,平湖中心学校,科教文化服务;学校;中学,928,22.689295,114.132430,平湖街道新南社区新南路1号
3,school,3,平湖守真小学,科教文化服务;学校;小学,1327,22.690324,114.127299,平湖街道上大街2号(平湖地铁站A口步行360米)
3,hospital,1,暨南大学附属深圳华侨医院住院部,医疗保健服务;综合医院;综合医院,1001,22.687160,114.144067,湖新路1号暨南大学附属深圳华侨医院内
3,hospital,2,深圳华侨医院,医疗保健服务;综合医院;综合医院,1007,22.687501,114.143853,平湖镇湖新街1号
3,hospital,3,深圳大学附属华南医院,医疗保健服务;综合医院;综合医院,1156,22.674359,114.144189,平湖街道福新街1号
3,mall,1,熙璟城购物中心,购物服务;商场;购物中心,9,22.681828,114.136317,富安大道100号
3,mall,2,优品谷(熙璟城购物中心店),购物服务;专卖店;烟酒专卖店,76,22.682415,114.136085,富安大道100号熙璟城购物中心F1层
3,mall,3,平湖酒店用品城C区,商务住宅;商务住宅相关;商务住宅相关,233,22.679699,114.136765,平安大道6号
3,park,1,平湖匠作主题公园,风景名胜;公园广场;公园,687,22.676195,114.139197,平安大道与民安路交叉口东40米
3,park,2,户外花园,风景名胜;公园广场;公园,774,22.682475,114.128775,富安大道18号亚钢1号
4,subway,1,老街(地铁站),交通设施服务;地铁站;地铁站,211,22.544301,114.116241,(在建)17号线/平湖线;1号线/罗宝线;3号线/龙岗线
4,subway,2,东门(地铁站),交通设施服务;地铁站;地铁站,372,22.542946,114.117079,5号线/环中线
4,subway,3,嘉宾(地铁站),交通设施服务;地铁站;地铁站,693,22.539105,114.115426,(在建)17号线/平湖线
4,school,1,深圳市桂园小学,科教文化服务;学校;小学,360,22.545475,114.110980,宝安南路2028号(大剧院地铁站D口步行430米)
4,school,2,深圳市罗湖区星园学校,科教文化服务;学校;小学,512,22.549733,114.113248,桂园路94号
4,school,3,深圳小学,科教文化服务;学校;小学,762,22.550021,114.119823,人民北路2171号(晒布地铁站D1口步行390米)
4,hospital,1,广州中医药大学第四临床医学院,科教文化服务;学校;高等院校,272,22.543789,114.112368,深圳市中医院第一门诊部西北门旁
4,hospital,2,深圳市中医院科教中心,科教文化服务;科教文化场所;科教文化场所,527,22.541251,114.117178,迎春路15号(国贸地铁站E口步行320米)
4,hospital,3,深圳远大胃肠肛肠医院,生活服务;生活服务场所;生活服务场所,690,22.539815,114.117669,南湖街道嘉北社区迎春路3号海燕大厦嘉宾路3002-2层-4层
4,mall,1,深圳文和友,购物服务;商场;商场,9,22.545339,114.114531,解放路3002号(老街地铁站G口步行310米)
4,mall,2,和平茂业商场(鸿隆世纪广场店),购物服务;商场;商场,130,22.544124,114.114236,东门街道和平路3009号茂业商场二楼
4,mall,3,茂业奥特莱斯(和平路店),购物服务;商场;购物中心,130,22.544115,114.114262,解放路人民桥(老街地铁站H口步行230米)
4,park,1,飞跃恐龙谷,风景名胜;风景名胜相关;旅游景点,414,22.545274,114.118505,602(老街地铁站出入口步行110米)
4,park,2,深南宝安路街头公园,风景名胜;公园广场;公园,416,22.542559,114.111693,宝安南路街头公园(大剧院地铁站D口步行350米)
4,park,3,和平社区公园,风景名胜;公园广场;公园,696,22.539137,114.113149,东门太平洋商贸大厦(嘉宾路北)
5,subway,1,民宝(地铁站),交通设施服务;地铁站;地铁站,547,22.620683,114.032817,(在建)27号线
5,subway,2,民治(地铁站),交通设施服务;地铁站;地铁站,599,22.617545,114.040850,(在建)22号线/中轴线;5号线/环中线
5,subway,3,民治北(地铁站),交通设施服务;地铁站;地铁站,1028,22.631399,114.037208,(在建)22号线/中轴线
5,school,1,泊寓-民治小学公社,科教文化服务;科教文化场所;科教文化场所,244,22.619982,114.037867,塘水围新村3区66B栋
5,school,2,民治小学,科教文化服务;学校;小学,257,22.620262,114.039276,民治大道395号(民治地铁站D口步行310米)
5,school,3,深圳市龙华区行知实验小学,科教文化服务;学校;小学,1144,22.614488,114.045274,民治街道民新社区民丰路30号
5,hospital,1,深圳健安医院,医疗保健服务;综合医院;综合医院,758,22.628992,114.038086,民治街道沙吓工业区169号
5,hospital,2,深圳健安医院妇科中心,医疗保健服务;综合医院;综合医院,758,22.628996,114.038074,龙华区沙吓工业区169号
5,hospital,3,阳光里社康服务中心,医疗保健服务;综合医院;卫生院,844,22.625052,114.030277,民治街道民兴街绿景公馆一八六六花园南区商铺首层
5,mall,1,华洋商城,购物服务;商场;普通商场,120,22.621306,114.037206,民旺路79号
5,mall,2,恒科商业广场,购物服务;商场;普通商场,194,22.621218,114.039461,民治大道435号(民治地铁站D口步行390米)
5,mall,3,嘉熙业广场,购物服务;商场;购物中心,226,22.623123,114.039840,民治大道328号
5,park,1,民治社区公园-凉亭,风景名胜;风景名胜相关;旅游景点,390,22.619425,114.035538,民治街道民旺路88号民治社区公园(东北角)
5,park,2,民治社区公园,风景名胜;公园广场;公园,423,22.619185,114.035345,民治街道民旺路88号
5,park,3,民治电信支局闲置地改建公园,风景名胜;公园广场;公园,431,22.621334,114.033793,民治街道民强社区民旺路142号
6,subway,1,景龙(地铁站),交通设施服务;地铁站;地铁站,374,22.646432,114.027624,(在建)25号线一期
6,subway,2,油福(地铁站),交通设施服务;地铁站;地铁站,522,22.642128,114.032753,(在建)25号线一期;(在建)27号线
6,subway,3,松和(地铁站),交通设施服务;地铁站;地铁站,1035,22.640214,114.038572,(在建)22号线/中轴线
6,school,1,乐思拓教育(壹成中心校区),科教文化服务;培训机构;培训机构,82,22.646025,114.030775,鸿荣路壹城中心七区1栋B座二楼37号街铺
6,school,2,A+计划教育(壹方天地校区),科教文化服务;培训机构;培训机构,412,22.650312,114.031488,东环一路230号
6,school,3,深圳市龙华区创新实验学校小学部,科教文化服务;学校;小学,536,22.651292,114.030008,龙华街道景新社区景龙太平路10号
6,hospital,1,深圳固生堂中医龙华门诊部,医疗保健服务;医药保健销售店;医疗保健用品|医疗保健服务;诊所;诊所,557,22.651615,114.030999,龙华街道景龙社区建设东路东南侧东华明珠园商场1011楼L1-012号
6,hospital,2,深圳市龙华区人民医院创伤中心,医疗保健服务;综合医院;三级甲等医院,997,22.655325,114.033525,龙华街道景龙建设路38号人民医院新外科楼2楼
6,hospital,3,深圳市龙华区人民医院,医疗保健服务;综合医院;三级甲等医院,1003,22.655543,114.032620,龙华街道景龙社区龙华建设路38号
6,mall,1,壹方天地B区,购物服务;商场;普通商场,211,22.646507,114.029210,人民路4022号
6,mall,2,壹方天地,购物服务;商场;普通商场|购物服务;商场;购物中心,213,22.646577,114.029185,人民路4022号
6,mall,3,MONOLOGUE(深圳壹方天地店),购物服务;专卖店;珠宝首饰工艺品,275,22.644175,114.030825,人民路4022号壹方天地C区L1层
6,park,1,景龙儿童街心公园,风景名胜;公园广场;公园,491,22.650951,114.030383,龙华街道景新社区景龙太平路8号
6,park,2,觅蜜花园,风景名胜;公园广场;公园,537,22.650303,114.027884,CITY BOOK儿童书房东侧绿地
6,park,3,龙华街道禁毒主题公园,风景名胜;公园广场;公园,985,22.643968,114.040414,民清路80号
7,subway,1,鹿丹村(地铁站),交通设施服务;地铁站;地铁站,259,22.535708,114.108625,9号线/梅林线
7,subway,2,红岭南(地铁站),交通设施服务;地铁站;地铁站,510,22.538490,114.106261,11号线/机场线;9号线/梅林线
7,subway,3,大剧院(地铁站),交通设施服务;地铁站;地铁站,877,22.541800,114.107811,1号线/罗宝线;2号线(8号线);5号线/环中线
7,school,1,深圳市滨河小学,科教文化服务;学校;小学,301,22.536272,114.105444,红岭南路1002号(鹿丹村地铁站D口步行320米)
7,school,2,燕贻学校,科教文化服务;学校;小学,570,22.539075,114.107225,金塘街与金华街交叉口北60米
7,school,3,深圳市福田区上步小学,科教文化服务;学校;小学,971,22.537788,114.098467,埔尾村55号(近南园路)
7,hospital,1,幸福万象大厦社康中心,医疗保健服务;综合医院;卫生院,429,22.532922,114.110988,渔民村路38号幸福万象大厦
7,hospital,2,深圳平乐骨伤科医院正骨科,医疗保健服务;专科医院;骨科医院,554,22.537675,114.103375,东园路与巴登街交叉口东120米
7,hospital,3,深圳平乐骨伤科医院(福田院区),医疗保健服务;专科医院;骨科医院,567,22.537651,114.103157,东园路30号(红岭南地铁站C口步行340米)
7,mall,1,中深烟草贸易中心商场,购物服务;专卖店;烟酒专卖店,495,22.537075,114.103525,东园路17号滨河新村(红岭南地铁站E口步行320米)
7,mall,2,深圳万象城(罗湖店)-2期,购物服务;商场;普通商场,609,22.537994,114.110958,宝安南路1881号(鹿丹村地铁站C口步行320米)
7,mall,3,丽晶商业广场,购物服务;商场;普通商场,626,22.539567,114.107354,金塘街48号(大剧院地铁站E口步行170米)
7,park,1,滨江新村社区公园,风景名胜;公园广场;公园,638,22.536778,114.101559,东园路87-89号
7,park,2,嘉宾公园,风景名胜;公园广场;公园,728,22.538296,114.112261,宝安南路1881号万象城对面
7,park,3,119消防主题公园,风景名胜;公园广场;公园,763,22.539022,114.111965,宝安路与嘉宾路交叉口西北40米
8,subway,1,贝尔路(地铁站),交通设施服务;地铁站;地铁站,653,22.641719,114.066366,(在建)25号线一期;10号线/坂田线
8,subway,2,华为(地铁站),交通设施服务;地铁站;地铁站,672,22.650445,114.067171,10号线/坂田线
8,subway,3,黄君山(地铁站),交通设施服务;地铁站;地铁站,1268,22.641837,114.059469,(在建)25号线一期
8,school,1,龙岗区外国语学校(集团)云和学校小学部,科教文化服务;学校;小学,479,22.647075,114.066725,坂雪岗大道与隆平路交叉口东北150米
8,school,2,雪象小学,科教文化服务;学校;小学,883,22.650859,114.077580,雪岗路1041号
8,school,3,立雪小学,科教文化服务;学校;小学,1087,22.650838,114.080063,坂田街道坂澜大道52号
8,hospital,1,深圳市龙岗区第二中医院,医疗保健服务;综合医院;综合医院,390,22.646145,114.074873,坂田街道万科城社区坂澜大道20号
8,hospital,2,深圳市人民医院(坂田院区),医疗保健服务;综合医院;三级甲等医院,875,22.650424,114.077859,坂澜大道
8,hospital,3,肖传国医院,医疗保健服务;综合医院;综合医院,1230,22.656664,114.070601,坂雪岗大道4035号(岗头地铁站D口步行140米)
8,mall,1,万和商场(雪象花园新村南),购物服务;超级市场;超市,654,22.649763,114.075633,坂田街道雪象花园新村10-12号1层
8,mall,2,华茂汇,购物服务;商场;普通商场,742,22.651803,114.068409,坂田街道坂雪岗大道4026号
8,mall,3,华创里购物中心,商务住宅;住宅区;住宅小区|购物服务;商场;商场,856,22.651577,114.065845,坂田街道岗头社区稼先路1998号华创云轩商业裙楼
8,park,1,万科城南门街心公园,风景名胜;公园广场;公园广场,403,22.642018,114.070703,坂雪岗大道2-24号
8,park,2,贝尔公园,风景名胜;风景名胜相关;旅游景点,489,22.641360,114.072304,吉华路468号
8,park,3,智慧种子花园,风景名胜;公园广场;公园,587,22.641454,114.067603,坂雪岗大道与贝尔路交汇处中海日辉台小区门前
9,subway,1,海月(地铁站),交通设施服务;地铁站;地铁站,417,22.500409,113.937715,2号线(8号线)
9,subway,2,登良(地铁站),交通设施服务;地铁站;地铁站,843,22.509146,113.937602,2号线(8号线)
9,subway,3,湾厦(地铁站),交通设施服务;地铁站;地铁站,1090,22.493353,113.938604,2号线(8号线)
9,school,1,深圳大学师范学院附属后海小学,科教文化服务;学校;小学,255,22.504257,113.932979,后海大道2142号
9,school,2,艺启创想实验艺术学院(深圳湾校区),科教文化服务;培训机构;培训机构,624,22.498525,113.938725,蛇口街道曦湾·教育城2楼207商铺艺启创想
9,school,3,深圳育才二小,科教文化服务;学校;小学,690,22.497224,113.930251,荔园路94号
9,hospital,1,南山区医疗集团总部文竹园社康服务中心,医疗保健服务;综合医院;卫生院,566,22.497643,113.931853,荔园路102号
9,hospital,2,深圳市南山区兰园社康,医疗保健服务;综合医院;卫生院,796,22.499823,113.926898,蛇口金竹园商业楼2栋
9,hospital,3,深圳市南山区慢性病防治院,医疗保健服务;疾病预防机构;疾病预防,839,22.507358,113.928177,南商路16号(南油地铁站A口步行400米)
9,mall,1,宝能·all city购物中心北区,购物服务;商场;购物中心,442,22.501025,113.938275,蛇口街道中心路2233号宝能·all city购物中心北区负一楼
9,mall,2,宝能·all city购物中心(南山店),购物服务;商场;购物中心,568,22.499768,113.939008,蛇口街道深圳湾社区中心路2233号
9,mall,3,宝能·all city南区,购物服务;商场;购物中心,582,22.499432,113.938950,中心路2233号(海月地铁站A口步行120米)
9,park,1,后海滨公园,风景名胜;公园广场;公园,323,22.502530,113.937313,后海招商海月花园二期东北(海月地铁站C口步行380米)
9,park,2,后海批发市场社区公园,风景名胜;公园广场;公园,373,22.504646,113.931640,近海路98号后海市场
9,park,3,东滨社区公园,风景名胜;公园广场;公园,592,22.505676,113.938602,兰香二路(登良地铁站A口步行340米)
10,subway,1,上塘(地铁站),交通设施服务;地铁站;地铁站,651,22.637056,114.012838,4号线/龙华线
10,subway,2,上芬(地铁站),交通设施服务;地铁站;地铁站,1190,22.640394,114.016637,6号线/光明线
10,subway,3,龙胜(地铁站),交通设施服务;地铁站;地铁站,1355,22.644739,114.012010,4号线/龙华线
10,school,1,深圳市龙华区和平实验小学,科教文化服务;学校;小学,753,22.639855,114.007897,新区大道和和平路交汇
10,school,2,华东师范大学未来小学,科教文化服务;学校;小学,759,22.635146,114.015222,民治街道龙塘社区上芬小学路403号(上塘地铁站D1口步行330米)
10,school,3,中建海峡龙华区实验学校小学部项目部,公司企业;公司;公司,819,22.633129,114.016153,向荣路与腾龙路交叉口东北60米
10,hospital,1,元大盛康堂中医(上塘总院),医疗保健服务;诊所;诊所,823,22.639650,114.011875,大浪街道龙平社区腾龙路淘金地电子商务孵化基地展滔商业广场D座102
10,hospital,2,龙塘社康,医疗保健服务;综合医院;卫生院,950,22.632480,114.017401,尚誉·红山里南门东北50米
10,hospital,3,深圳九味堂中医门诊部,医疗保健服务;诊所;诊所,1217,22.632896,114.020026,民治街道龙塘社区星河传奇花园一期118号(民塘上塘路口公交站)
10,mall,1,AT MALL 上塘荟,购物服务;商场;商场,718,22.636888,114.013833,民塘路521号(上塘地铁站A、D出入口)
10,mall,2,海宁广场,购物服务;商场;普通商场,723,22.639575,114.008678,白玉街与新区大道辅路交叉口东北60米
10,mall,3,正佳百货,购物服务;购物相关场所;购物相关场所,827,22.629358,114.015142,民治街道龙塘社区龙塘西十四巷4号101
10,park,1,简上社区公园,风景名胜;公园广场;公园,266,22.634402,114.010347,新区大道与简上路交叉口西北100米
10,park,2,龙塘公园,风景名胜;公园广场;公园,393,22.636531,114.009041,新区大道与洁玉街交叉口西北100米
10,park,3,民治办事处消防安全主题公园,风景名胜;公园广场;公园,575,22.634859,114.013438,简上路与腾龙路交叉口西南约60米
11,school,1,华景小学(北校区)-3号楼,科教文化服务;培训机构;培训机构,1080,23.142503,113.363048,华景北路277号华景小学(北校区)
11,school,2,华景小学(北校区),科教文化服务;学校;小学,1099,23.142340,113.362973,华景北路277号
11,school,3,华景小学(南校区),科教文化服务;学校;小学,1286,23.140575,113.362379,华景路178号
11,hospital,1,广州慈惠医院,医疗保健服务;医疗保健服务场所;医疗保健服务场所,1023,23.144301,113.378670,科韵北路20号
11,mall,1,亚太盛汇,购物服务;特色商业街;特色商业街,233,23.149441,113.368124,汇景北路74号汇景新城
11,mall,2,喀斯玛商城,购物服务;购物相关场所;购物相关场所,750,23.146948,113.363604,科华街与华南东侧路交叉口东300米
11,mall,3,华景新天地,购物服务;商场;商场,1061,23.141600,113.364548,棠下街道华景北路279号-281号
11,park,1,山顶公园,风景名胜;公园广场;公园,687,23.146372,113.376219,广园东汇景路汇景新城
11,park,2,华南农业大学泰山区公园,风景名胜;公园广场;公园,755,23.152536,113.363820,五山路483号华南农业大学
11,park,3,岑村立交小公园,风景名胜;公园广场;公园,1026,23.152790,113.379764,S15沈海高速广州支线出口与S15沈海高速广州支线入口交叉口东北40米
12,subway,1,赤岗塔(地铁站),交通设施服务;地铁站;地铁站,569,23.102133,113.324659,12号线
12,subway,2,广州塔(地铁站),交通设施服务;地铁站;地铁站,756,23.106483,113.323464,3号线;APM线
12,subway,3,赤岗(地铁站),交通设施服务;地铁站;地铁站,894,23.096548,113.334621,12号线;8号线
12,school,1,知信小学泓景校区,科教文化服务;学校;小学,338,23.100449,113.329192,赤岗北路泓景北二街7号
12,school,2,海珠区第二实验小学,科教文化服务;学校;小学,539,23.099544,113.333249,艺洲岛艺洲路600号
12,school,3,知信小学,科教文化服务;学校;小学,653,23.097652,113.328699,[]
12,hospital,1,一方艾业健康管理中心,体育休闲服务;娱乐场所;娱乐场所,321,23.101340,113.332252,珠江帝景苑艺洲路650号二楼一方艾业
12,hospital,2,广州市海珠区赤岗街社区卫生服务中心,医疗保健服务;综合医院;卫生院,594,23.098384,113.328034,赤岗北路18号
12,hospital,3,和睦家医院,医疗保健服务;综合医院;综合医院,868,23.102719,113.338499,琶洲大道31号
12,mall,1,四季天地北座,购物服务;商场;普通商场,302,23.101123,113.328410,赤岗街道赤岗北路128号四季天地北座2楼G06商铺
12,mall,2,四季天地,购物服务;商场;普通商场,336,23.100811,113.328329,赤岗北路118号
12,mall,3,四季天地南座,购物服务;商场;普通商场,410,23.100229,113.327985,赤岗北路118号
12,park,1,海珠区党建公园,风景名胜;公园广场;公园,378,23.103744,113.333722,磨碟沙大街73号(猎德大桥旁边)
12,park,2,全球数字小镇·创作者公园,体育休闲服务;体育休闲服务场所;体育休闲服务场所,674,23.099463,113.325027,新港中路TTT创意园A1-A5栋
12,park,3,伊呢森林,风景名胜;公园广场;公园,696,23.103444,113.323241,艺洲路与艺苑路交叉口北约120米
13,subway,1,飞翔公园(地铁站),交通设施服务;地铁站;地铁站,682,23.168833,113.263635,2号线
13,subway,2,乐嘉路(地铁站),交通设施服务;地铁站;地铁站,954,23.171173,113.260291,(在建)14号线二期;14号线
13,subway,3,白云公园(地铁站),交通设施服务;地铁站;地铁站,1128,23.181613,113.270966,2号线
13,school,1,景泰小学(景泰校区),科教文化服务;学校;小学,412,23.168422,113.271779,云龙路38号
13,school,2,广州市培英中学附属小学,科教文化服务;科教文化场所;科教文化场所,562,23.176191,113.271784,金信路颐和上院二期门口
13,school,3,景泰小学(柯子岭校区),科教文化服务;学校;小学,938,23.164988,113.275368,景云路43号
13,hospital,1,景泰街竹园社区颐康服务站,医疗保健服务;综合医院;卫生院,135,23.170502,113.268929,景泰街道金钟横路220号白兰花园35栋101房
13,hospital,2,景泰街云龙社区颐康服务站,医疗保健服务;综合医院;卫生院,492,23.167128,113.269454,平安路41号云西小区
13,hospital,3,景泰医院,医疗保健服务;综合医院;卫生院,493,23.167112,113.269714,平安路55号
13,mall,1,万达广场北中庭,购物服务;商场;购物中心,262,23.172970,113.267569,云城东路509号广州白云万达广场F1层
13,mall,2,苏宁百货(广州白云万达店),购物服务;商场;普通商场|购物服务;家电电子卖场;苏宁,275,23.172455,113.267111,云城东路507号
13,mall,3,广州白云万达广场,购物服务;商场;购物中心,310,23.172397,113.266727,云城东路509号
13,park,1,云东公园,风景名胜;公园广场;公园,550,23.168165,113.273529,云东中街云东花园
13,park,2,三泰公园,风景名胜;公园广场;公园,753,23.165084,113.267437,[]
13,park,3,三泰公园东苑,风景名胜;公园广场;公园,754,23.164833,113.268587,松柏东街旁
14,subway,1,北京路(地铁站),交通设施服务;地铁站;地铁站,242,23.118762,113.270327,6号线
14,subway,2,海珠广场(地铁站),交通设施服务;地铁站;地铁站,527,23.115234,113.265802,2号线;6号线
14,subway,3,团一大广场(地铁站),交通设施服务;地铁站;地铁站,789,23.118111,113.278266,6号线
14,school,1,八旗二马路小学(西校区),科教文化服务;学校;小学,124,23.116098,113.269645,同庆坊39号(北京路地铁站A口步行300米)
14,school,2,广州市八旗二马路小学,科教文化服务;学校;小学,270,23.116031,113.273292,八旗二马路60号
14,school,3,广州海印实验学校,科教文化服务;学校;中学,302,23.115122,113.268262,回龙路4号之2(海珠广场地铁站F口步行300米)
14,hospital,1,广州市越秀区珠光街社区卫生服务中心(仰忠院区),医疗保健服务;综合医院;卫生院,468,23.119870,113.273627,万福路203号
14,hospital,2,西湖医院(龙藏街),医疗保健服务;综合医院;综合医院,636,23.121251,113.267097,惠福东路457号(大头虾斜对面)
14,hospital,3,越秀区北京街社区卫生服务中心,医疗保健服务;综合医院;卫生院,636,23.121263,113.267108,惠福东路457号
14,mall,1,北京大厦饰博城,购物服务;综合市场;综合市场|购物服务;个人用品/化妆品店;其它个人用品店,153,23.117956,113.270378,北京路68号北京大厦(北京路地铁站A1口步行60米)
14,mall,2,北京路天河城,购物服务;商场;购物中心,211,23.117960,113.269275,北京路168号(地铁6号线北京路站B口步行80米)
14,mall,3,北京路天河城B区,购物服务;商场;购物中心,216,23.117712,113.268979,北京路21号(北京路地铁站A出口)
14,park,1,高第社区口袋公园,风景名胜;公园广场;公园,554,23.119390,113.266228,大南路与书坊街交叉口西南100米
14,park,2,永汉电影公园,风景名胜;公园广场;公园,586,23.113718,113.265938,人民街道果菜西社区一德路237号海珠广场内(南侧)
14,park,3,婚姻文化公园,风景名胜;公园广场;公园,618,23.111579,113.273287,滨江街道草芳围46号
15,subway,1,万胜围(地铁站),交通设施服务;地铁站;地铁站,791,23.097759,113.384560,(在建)8号线东延段;4号线;8号线
15,subway,2,琶洲(地铁站),交通设施服务;地铁站;地铁站,1387,23.098516,113.366700,11号线;8号线
15,school,1,名门珠江小学,科教文化服务;学校;小学,1184,23.095915,113.370717,新港东路南园中街27号南园居内(近中洲中心)
15,school,2,员村小学(美林分校),科教文化服务;学校;小学,1195,23.112199,113.373312,棕林街46号
15,school,3,海珠区第三实验小学,科教文化服务;学校;小学,1300,23.093260,113.386346,新港东路雅郡路1号(雅郡花园)
15,hospital,1,开强纪念医院(中医馆),医疗保健服务;医疗保健服务场所;医疗保健服务场所,426,23.099396,113.377935,昭悦路27号
15,hospital,2,开强纪念医院,医疗保健服务;综合医院;综合医院,491,23.098725,113.378154,新港东路与昭悦路交叉口东北120米
15,hospital,3,广州市海珠区琶洲街琶洲社区卫生服务站,医疗保健服务;综合医院;卫生院,600,23.098273,113.382166,琶洲蟠龙新街1号自编201室
15,mall,1,若比邻(保利天悦店),购物服务;商场;普通商场,237,23.101765,113.381225,宸悦路保利天悦
15,mall,2,琶洲商业广场,购物服务;商场;购物中心,382,23.101466,113.382687,琶洲街道占决新街3号琶洲商业广场1栋A座3007室
15,mall,3,万胜围商业广场,购物服务;商场;商场,439,23.101032,113.383061,琶洲新村2栋A座旁(万胜围地铁站D口步行450米)
15,park,1,保利琶洲公园,风景名胜;公园广场;公园,268,23.105193,113.380457,琶洲村新马路与暄悦西街交叉口西北100米
15,park,2,水博苑,风景名胜;公园广场;公园,438,23.101236,113.375519,琶洲街道阅江中路690号
15,park,3,滑板公园,风景名胜;公园广场;公园,566,23.104798,113.374162,琶洲水博苑
16,subway,1,赤岗塔(地铁站),交通设施服务;地铁站;地铁站,533,23.102133,113.324659,12号线
16,subway,2,赤岗(地铁站),交通设施服务;地铁站;地铁站,681,23.096548,113.334621,12号线;8号线
16,subway,3,客村(地铁站),交通设施服务;地铁站;地铁站,882,23.096197,113.320331,3号线;8号线
16,school,1,知信小学,科教文化服务;学校;小学,135,23.097652,113.328699,[]
16,school,2,知信小学泓景校区,科教文化服务;学校;小学,194,23.100449,113.329192,赤岗北路泓景北二街7号
16,school,3,海珠区第二实验小学,科教文化服务;学校;小学,497,23.099544,113.333249,艺洲岛艺洲路600号
16,hospital,1,广州市海珠区赤岗街社区卫生服务中心,医疗保健服务;综合医院;卫生院,66,23.098384,113.328034,赤岗北路18号
16,hospital,2,一方艾业健康管理中心,体育休闲服务;娱乐场所;娱乐场所,478,23.101340,113.332252,珠江帝景苑艺洲路650号二楼一方艾业
16,hospital,3,广州赤冈中医医院,医疗保健服务;综合医院;综合医院,642,23.093433,113.326282,赤岗西路35号
16,mall,1,四季天地南座,购物服务;商场;普通商场,161,23.100229,113.327985,赤岗北路118号
16,mall,2,四季天地,购物服务;商场;普通商场,219,23.100811,113.328329,赤岗北路118号
16,mall,3,四季天地北座,购物服务;商场;普通商场,253,23.101123,113.328410,赤岗街道赤岗北路128号四季天地北座2楼G06商铺
16,park,1,全球数字小镇·创作者公园,体育休闲服务;体育休闲服务场所;体育休闲服务场所,357,23.099463,113.325027,新港中路TTT创意园A1-A5栋
16,park,2,伊呢森林,风景名胜;公园广场;公园,739,23.103444,113.323241,艺洲路与艺苑路交叉口北约120米
16,park,3,海珠区党建公园,风景名胜;公园广场;公园,767,23.103744,113.333722,磨碟沙大街73号(猎德大桥旁边)
17,school,1,白云广附金悦实验小学,科教文化服务;学校;小学,741,23.156095,113.194581,[]
17,school,2,沙凤小学(北校区),科教文化服务;学校;小学,964,23.159810,113.195343,春满街18号
17,school,3,广州市英伦外籍人员子女学校·国际学校,科教文化服务;学校;中学,1216,23.147167,113.195549,金沙洲创佳路4号
17,hospital,1,健仕云医互联网医院,医疗保健服务;医疗保健服务场所;医疗保健服务场所,977,23.148020,113.192998,沙凤三路3号501-B510
17,hospital,2,广东医寻医院互联网医院,医疗保健服务;医疗保健服务场所;医疗保健服务场所,990,23.148125,113.193375,沙凤三路3号b馆b129、b509
17,hospital,3,金沙互联网共享医院,医疗保健服务;医疗保健服务场所;医疗保健服务场所,1023,23.147812,113.193454,沙凤一路与创佳路交叉口西南160米
17,mall,1,永旺梦乐城(白云店),购物服务;商场;购物中心|购物服务;超级市场;超市,929,23.150546,113.194993,沙凤三路1号
17,mall,2,佳德荟,购物服务;商场;普通商场,986,23.153723,113.196921,创辉路与环洲五路交叉口西北80米
18,school,1,凤凰城中英文学校,科教文化服务;学校;中学|科教文化服务;学校;小学,394,23.134469,113.589777,新塘镇广园东碧桂园凤凰城
18,school,2,龙文教育(凤馨苑校区),科教文化服务;培训机构;培训机构,428,23.137636,113.594275,新塘汽车城大道268号凤馨苑2号门
18,school,3,永宁街第二小学,科教文化服务;学校;小学,546,23.140313,113.594809,汽车城大道
18,hospital,1,长岗中心村卫生站,医疗保健服务;诊所;诊所,1265,23.140565,113.602150,新塘长岗新村(长岗新村街北)
18,hospital,2,广东省水电医院(凤凰城院区),医疗保健服务;综合医院;综合医院,1317,23.138304,113.602975,汽车城大道与长岗新村街交叉口东北100米
18,mall,1,广汇天地,购物服务;商场;购物中心,995,23.134308,113.598962,永宁街道凤凰北横路1号
18,mall,2,长实广场,购物服务;商场;购物中心,1180,23.137900,113.601639,永宁街长岗村华兴商贸综合市场
18,mall,3,东进商城(群星新邨店),购物服务;商场;商场,1474,23.128743,113.600409,纵一路与汇太西路交叉口北40米
18,park,1,罗马街心公园,风景名胜;公园广场;公园,1446,23.128493,113.580472,凤鸣苑六街
18,park,2,永宁街廉洁文化主题公园,风景名胜;公园广场;公园,1450,23.133837,113.576681,永宁街凤凰城酒店南
18,park,3,荔枝公园,风景名胜;公园广场;公园,1452,23.133155,113.576928,新塘凤凰城(碧桂园2环岛北)
19,school,1,珠海市香洲区东桥小学,科教文化服务;学校;小学,486,22.218156,113.521666,硕丰路与东桥大街交叉口西80米
19,school,2,香洲区杨匏安纪念学校,科教文化服务;学校;小学|科教文化服务;学校;幼儿园,682,22.219596,113.518121,北山因是园街79号
19,school,3,珠海容闳学校,科教文化服务;学校;小学,945,22.228051,113.518125,寿丰路2号
19,hospital,1,香洲区南屏镇东桥社区卫生服务站,医疗保健服务;医疗保健服务场所;医疗保健服务场所,594,22.216444,113.524512,绿景玺悦湾南区东门东南100米
19,hospital,2,原东桥卫生站,医疗保健服务;诊所;诊所,742,22.221115,113.517141,秀毓园东南门西南90米
19,hospital,3,珠海市香洲区拱北街道港昌社区卫生服务站,医疗保健服务;综合医院;卫生院,1059,22.228836,113.531212,港昌路507号
19,mall,1,红树湾商业中心,购物服务;商场;普通商场,94,22.220999,113.523965,前河西路233号
19,mall,2,秀毓园平价商场(秀毓园B区店),购物服务;便民商店/便利店;便民商店/便利店,638,22.221559,113.518118,香州区北山路2号秀毓园
19,mall,3,公园道商场,购物服务;购物相关场所;购物相关场所,644,22.226325,113.520425,公园道
19,park,1,前河西路滨河公园,风景名胜;公园广场;公园,347,22.224807,113.525158,前河东路滨河公园
19,park,2,东桥社区公园,风景名胜;公园广场;公园,495,22.217535,113.522856,东桥大街2号
19,park,3,前山滨河公园宠物公园,风景名胜;公园广场;公园,917,22.220527,113.533107,夏湾路554号
20,school,1,珠海容闳学校,科教文化服务;学校;小学,407,22.228051,113.518125,寿丰路2号
20,school,2,珠海市香洲区第二十三小学,科教文化服务;学校;小学,998,22.239248,113.519054,港口三路66号
20,school,3,香洲区杨匏安纪念学校,科教文化服务;学校;小学|科教文化服务;学校;幼儿园,1248,22.219596,113.518121,北山因是园街79号
20,hospital,1,珠海市香洲区华发新城社区卫生服务中心,医疗保健服务;医疗保健服务场所;医疗保健服务场所,284,22.229666,113.518463,珠海大道1号华发新城
20,hospital,2,华发新城社区卫生服务中心,医疗保健服务;综合医院;卫生院,285,22.229667,113.518456,珠海大道1号华发新城
20,hospital,3,珠海市香洲区前山街道前山社区卫生服务站,医疗保健服务;综合医院;卫生院,995,22.238857,113.524436,粤海西路118号
20,mall,1,公园道商场,购物服务;购物相关场所;购物相关场所,466,22.226325,113.520425,公园道
20,mall,2,珠海环宇城,商务住宅;楼宇;商住两用楼宇,543,22.233977,113.524757,前山前河北路96号
20,mall,3,天天平价商场(漾湖明居店),购物服务;便民商店/便利店;便民商店/便利店,753,22.237223,113.521609,前山港昌路903号
20,park,1,港昌社区公园,风景名胜;公园广场;公园,648,22.231191,113.527334,前山海荣新村西北(珠海大道东南)
20,park,2,前河西路滨河公园,风景名胜;公园广场;公园,757,22.224807,113.525158,前河东路滨河公园
20,park,3,前山滨河公园,风景名胜;公园广场;公园,770,22.235052,113.515473,前山河畔
21,school,1,珠海市香洲区云峰小学,科教文化服务;学校;小学,217,22.272547,113.502853,凤山街道扣扉路299号
21,school,2,珠海市香洲区第十五小学,科教文化服务;学校;小学,1141,22.282436,113.509494,凤山街道敬学路1号
21,school,3,珠海市南溪小学,科教文化服务;学校;小学,1292,22.285352,113.506907,前山镇南溪村东信街285号
21,hospital,1,长沙社区卫生服务站,生活服务;生活服务场所;生活服务场所,716,22.277511,113.508640,长沙新苑东南1门东北80米
21,hospital,2,珠海上衝医院北院区,医疗保健服务;综合医院;综合医院,1195,22.271129,113.513530,明珠北路68号原珠海市口腔医院
21,hospital,3,新香社区卫生服务站,医疗保健服务;综合医院;卫生院,1418,22.274564,113.516278,梅华西路943号
21,mall,1,智达家具业大商场,购物服务;家居建材市场;家具城,332,22.276325,113.499975,南坦路1号智达家具1号馆
21,mall,2,四而美家私商场,购物服务;家居建材市场;家具城,334,22.277134,113.500992,南溪村名贤家私城前排
21,mall,3,万科里,商务住宅;商务住宅相关;商务住宅相关,401,22.271222,113.504191,扣扉路与碧澜路交叉口南140米
21,park,1,康济亭社区公园,风景名胜;公园广场;公园,495,22.278654,113.504150,香洲大道与南福路交叉口东40米
21,park,2,TOD小镇社区公园,风景名胜;公园广场;公园,645,22.268775,113.503659,云峰路华发城建未来荟
21,park,3,南溪公园,风景名胜;公园广场;公园,926,22.282801,113.502436,南溪市场53号
22,school,1,珠海市斗门区尚峰学校(建设中),科教文化服务;学校;小学|科教文化服务;学校;中学,578,22.176894,113.317884,尚峰学校
22,hospital,1,白藤湖社区卫生服务中心,医疗保健服务;综合医院;卫生院,1272,22.177527,113.325108,农民新村南路一号
22,hospital,2,遵义医科大学第五附属(珠海)医院,医疗保健服务;综合医院;综合医院,1459,22.164756,113.303105,珠峰大道1439号遵义医学院第五附属(珠海)医院
22,hospital,3,卫生服务中心,医疗保健服务;综合医院;卫生院,1480,22.174540,113.299163,新伟街东风村办公楼
22,mall,1,东方墅商业街二期,购物服务;特色商业街;特色商业街,971,22.170390,113.304757,珠峰大道1288号
22,mall,2,珠海斗门世荣万达广场,购物服务;商场;购物中心,1230,22.166474,113.304419,井岸镇知行路118号
22,park,1,邻里社区公园,风景名胜;公园广场;公园,282,22.174476,113.316091,井岸镇河坊路旁
22,park,2,黄杨河湿地公园,风景名胜;公园广场;公园,716,22.175181,113.320242,井岸镇西堤路与河山路交叉口东北40米
22,park,3,华发水郡省级湿地公园,风景名胜;风景名胜;省级景点,739,22.167015,113.313606,井岸镇珠峰大道288号
23,school,1,珠海高新区礼和小学,科教文化服务;学校;小学,368,22.399558,113.548066,北城西二路与金业南路交叉口东北100米
23,school,2,珠海高新区凤鸣小学,科教文化服务;学校;小学,1356,22.403547,113.556642,北城东四路211号
23,hospital,1,珠海高新区人民医院北围院区(一期)(建设中),医疗保健服务;综合医院;综合医院,546,22.397609,113.539540,鼎兴路199号
23,mall,1,友丰五金建材城(高新区店),购物服务;家居建材市场;建材五金市场,669,22.398869,113.551278,高新区新湾六路65号
23,mall,2,中医药电商城,商务住宅;商务住宅相关;商务住宅相关,1051,22.389027,113.542320,金创一路35号
23,park,1,天星四路公园,风景名胜;公园广场;公园,208,22.400021,113.545199,金业西路与新沙六路交叉口东北120米
23,park,2,新湾七路公园,风景名胜;公园广场;公园,212,22.400059,113.545210,天星四路公园
23,park,3,新湾六路公园,体育休闲服务;体育休闲服务场所;体育休闲服务场所,1064,22.406178,113.550492,兴中路300号
